locations,lon,lat
Sasso Marconi Italy,11.2297105,44.427581
Bonniv®res-sur-seine France,2.4489006,48.6382687
Shenzhen China,114.057865,22.543096
Bordeaux France,-0.57918,44.837789
Beijing China,116.4073963,39.9041999
Shanghai China,121.473701,31.230416
London United Kingdom,-0.1277583,51.5073509
Kuala Lumpur Malaysia,101.686855,3.139003
Singapore Singapore,103.819836,1.352083
Kazan Russia,49.0660806,55.8304307
Portland United States,-122.6750261,45.5051064
Vienna Austria,16.3738189,48.2081743
Cambridge United Kingdom,0.121817,52.205337
Paris France,2.3522219,48.856614
Bundangdong South Korea,127.1445337,37.3671291
Savyon Israel,34.876578,32.045589
Gorinchem Netherlands,4.9758292,51.8372247
Reykjavík Iceland,-21.9426354,64.146582
Reykjavv?k Iceland,-21.9426354,64.146582
Taipei Taiwan,121.5654177,25.0329694
Chengdu China,104.066801,30.572815
Gothenburg Sweden,11.97456,57.70887
Auckland New Zealand,174.7633315,-36.8484597
Nellore India,79.986456,14.4425987
Nice France,7.2619532,43.7101728
Barcelona Spain,2.1734035,41.3850639
Newcastle Australia,151.7816802,-32.9282712
Bogotá Colombia,-74.072092,4.7109886
Delhi India,77.1024902,28.7040592
Bron France,4.911927,45.733316
Las Palmas De Gran Canaria Spain,-15.4362574,28.1235459
Vancouver Canada,-123.1207375,49.2827291
Bielefeld Germany,8.5324708,52.0302285
Manchester United Kingdom,-2.2426305,53.4807593
Harrogate United Kingdom,-1.541812,53.99212
Petaling Jaya Malaysia,101.5944885,3.1278871
Nottingham United Kingdom,-1.1581086,52.9547832
Milan Italy,9.189982,45.4642035
Heidelberg Germany,8.6724335,49.3987524
Rockville United States,-77.1527578,39.0839973
Copenhagen Denmark,12.5683372,55.6760968
Caorle Italy,12.8859589,45.6030238
Roncade Italy,12.3745787,45.6289905
Munich Germany,11.5819805,48.1351253
Boortmeerbeek Belgium,4.57598,50.97939
Southampton United Kingdom,-1.4043509,50.9097004
Berlin Germany,13.404954,52.5200066
Stockholm Sweden,18.0685808,59.3293235
Amsterdam Netherlands,4.8945398,52.3666969
Madrid Spain,-3.7037902,40.4167754
Hamburg Germany,9.9936819,53.5510846
Pont-à-vendin France,2.889669,50.478661
Leipzig Germany,12.3730747,51.3396955
Warrington United Kingdom,-2.5969501,53.3900441
Roma Italy,12.4963655,41.9027835
Fleurus Belgium,4.5511869,50.4822605
Akureyri Iceland,-18.0906859,65.6825509
Heslington United Kingdom,-1.0475209,53.9474028
Valkenswaard Netherlands,5.4533268,51.3554957
Ferrières Belgium,5.60564,50.40029
Ballinasloe Ireland,-8.2269467,53.3287621
Montréal Canada,-73.567256,45.5016889
West Burton United Kingdom,-1.975145,54.275342
Hafnarfjörður Iceland,-21.9684626,64.0291054
Istanbul Turkey,28.9783589,41.0082376
Glasgow United Kingdom,-4.251806,55.864237
Belfast United States,-69.0064234,44.4259092
Guandong China,113.7632828,23.3790333
Torres Vedras Portugal,-9.2597522,39.0910112
Lyon France,4.835659,45.764043
Espoo Finland,24.6559,60.2054911
Wakefield United Kingdom,-1.505924,53.683298
Qingdao China,120.382609,36.067108
Haidian China,116.298326,39.959953
Geneva Switzerland,6.1431577,46.2043907
Seoul South Korea,126.9779692,37.566535
Wadenswil Switzerland,8.6718189,47.2296871
Bolzano Italy,11.3547582,46.4982953
Zürich Switzerland,8.541694,47.3768866
Helsinki Finland,24.9383791,60.1698557
Maastricht Netherlands,5.6909725,50.8513682
Tallinn Estonia,24.7535747,59.4369608
Lille France,3.057256,50.62925
Tehran Iran,51.3889736,35.6891975
Vaulx-en-velin France,4.922661,45.782029
Liverpool United Kingdom,-2.9915726,53.4083714
Kusatsu Japan,138.5960945,36.6207181
Minhang China,121.381716,31.112818
Bath United Kingdom,-2.3590167,51.3810641
Marseille France,5.36978,43.296482
Krems An Der Donau Austria,15.60384,48.40999
Guangzhou China,113.264385,23.12911
Rouffach France,7.299417,47.957064
Laval France,-0.7669906,48.0785146
Bristol United Kingdom,-2.58791,51.454513
Mougins France,7.006491,43.6023319
Cairo Egypt,31.2357116,30.0444196
Great Yarmouth United Kingdom,1.728047,52.598233
Blackrock Ireland,-6.1778335,53.3021597
Tianhe China,113.3612,23.12468
Southport United States,-78.0202677,33.921563
Baku Azerbaijan,49.8670924,40.4092617
Toronto Canada,-79.3831843,43.653226
Durham United States,-78.898619,35.9940329
Kista Sweden,17.9464824,59.4024341
Uppsala Sweden,17.6389267,59.8585638
Basel Switzerland,7.5885761,47.5595986
Windisch Switzerland,8.2159655,47.4789604
Lausanne Switzerland,6.6322734,46.5196535
Riga Latvia,24.1051865,56.9496487
Alsdorf Germany,6.1648392,50.8715885
Warsaw Poland,21.0122287,52.2296756
Seocho South Korea,127.0324112,37.4837121
Le Tampon Réunion,55.5579927,-21.2209911
Planegg Germany,11.4242653,48.1068217
Dublin Ireland,-6.2603097,53.3498053
Matelica Italy,13.0091955,43.2511531
Sunderland Bridge United Kingdom,-1.581254,54.733881
Kent United Kingdom,0.5217254,51.2787075
Huawei China,105.674423,34.859493
Suzhou China,120.585289,31.298974
Nanjing China,118.796877,32.060255
Köngen Germany,9.3664079,48.6798097
Edmonton Canada,-113.4938229,53.5461245
Alfena Portugal,-8.5256062,41.2414762
Dongcheng China,116.416357,39.928353
Rocklin United States,-121.2357828,38.7907339
Shibuya Japan,139.703795,35.6619707
Vaughan Canada,-79.5085383,43.8563158
New York United States,-74.0059728,40.7127753
Surbiton United Kingdom,-0.302662,51.39401
Wroclaw Poland,17.0385376,51.1078852
Saskatoon Canada,-106.6700458,52.1332144
Lyngby Denmark,12.4949429,55.763516
Australia Philippines,121.016509,14.560701
Los Angeles United States,-118.2436849,34.0522342
Logroño Spain,-2.4449852,42.4627195
Doncaster United Kingdom,-1.128462,53.52282
Regensburg Germany,12.1016236,49.0134297
Venlo Netherlands,6.1724031,51.3703748
Montreuil France,2.448451,48.863812
Jinhua China,119.64742,29.079175
Sv£o Paulo Brazil,-46.6333094,-23.5505199
Wembley United Kingdom,-0.3048409,51.550501
Delft Netherlands,4.3570677,52.0115769
Hyderabad India,78.486671,17.385044
Wrexham United Kingdom,-2.992494,53.04304
Sofia Bulgaria,23.3218675,42.6977082
Aalborg Denmark,9.921747,57.0488195
Cambridge United States,-71.1097335,42.3736158
Bengaluru India,77.5945627,12.9715987
Kolkata India,88.363895,22.572646
Sorocaba Brazil,-47.4882762,-23.4557103
Jaipur India,75.7872709,26.9124336
Nairobi Kenya,36.8219462,-1.2920659
Maidenhead United Kingdom,-0.7219,51.522414
Rotterdam Netherlands,4.4777326,51.9244201
Oslo Norway,10.7522454,59.9138688
Ljubljana Slovenia,14.5057515,46.0569465
Dallas United States,-96.7969879,32.7766642
Tours France,0.68484,47.394144
Abingdon United Kingdom,-1.2879529,51.67078
Vimodrone Italy,9.2902681,45.513947
Hawalli Kuwait,48.0234708,29.3377882
Opfikon Switzerland,8.5671098,47.4346801
York United Kingdom,-1.0872979,53.9599651
Halifax Canada,-63.5752387,44.6487635
Norwich United Kingdom,1.297355,52.6308859
Seongnam South Korea,127.1388684,37.4449168
Gateshead United Kingdom,-1.603411,54.95268
Bolton United Kingdom,-2.4282192,53.5768647
Westlake Village United States,-118.8073729,34.1466467
Ålesund Norway,6.1494821,62.4722284
Zwijnaarde Belgium,3.7106183,50.9998062
Guyancourt France,2.075323,48.762895
Vénissieux France,4.8844649,45.699594
A Coruv±a Spain,-8.4115401,43.3623436
Genova Italy,8.946256,44.4056499
Sant Cugat Del Vallv®s Spain,2.0763166,41.4526128
Bangalore India,77.5945627,12.9715987
Sierre Switzerland,7.5335362,46.2941311
München Germany,11.5819805,48.1351253
Valladolid Spain,-4.7245321,41.652251
Thane India,72.9780897,19.2183307
Sheffield United Kingdom,-1.470085,53.381129
Woerden Netherlands,4.8627239,52.0798287
Asker Norway,10.4209871,59.8218296
Athens Greece,23.7275388,37.9838096
Guildford United Kingdom,-0.570409,51.23622
Hong Kong Hong Kong SAR China,114.1693611,22.3193039
Runcorn United Kingdom,-2.729673,53.342078
Buenos Aires Argentina,-58.3815591,-34.6036844
Kongens Lyngby Denmark,12.4949429,55.763516
Ecublens Switzerland,6.5615252,46.5296363
Toulouse France,1.444209,43.604652
Tulsa United States,-95.992775,36.1539816
Davis United States,-121.7405167,38.5449065
Antwerpen Belgium,4.4024643,51.2194475
Haifa Israel,34.989571,32.7940463
Cochin India,76.2673041,9.9312328
Itá Brazil,-45.8753055,-23.2108714
Didcot United Kingdom,-1.24484,51.608044
Brighton United Kingdom,-0.137163,50.82253
Fleetwood United States,-75.8179764,40.4539828
Wellingborough United Kingdom,-0.693964,52.302419
Gurgaon India,77.0266383,28.4594965
Adelaide Australia,138.6007456,-34.9284989
Lund Sweden,13.1910073,55.7046601
Brussels Belgium,4.3517211,50.8503463
Taunton United Kingdom,-3.106849,51.015344
Root Switzerland,8.3900853,47.1149422
Lancaster United Kingdom,-2.8007399,54.046575
Loughborough United Kingdom,-1.206166,52.772099
Baldoyle Ireland,-6.1272516,53.3986712
San Diego United States,-117.1610838,32.715738
Basingstoke United Kingdom,-1.0923964,51.26654
Forres United Kingdom,-3.61998,57.609791
Worcester United Kingdom,-2.221575,52.193636
Tokyo Japan,139.6503106,35.6761919
Johnston United States,-93.7130493,41.6709834
Waterloo Canada,-80.5204096,43.4642578
Rugeley United Kingdom,-1.935967,52.761515
Birmingham United Kingdom,-1.890401,52.486243
Frankfurt Germany,8.6821267,50.1109221
Mississauga Canada,-79.6441198,43.5890452
Alverca Portugal,-9.0397427,38.9022048
San Francisco United States,-122.4194155,37.7749295
Stevenage United Kingdom,-0.196612,51.903761
Gosforth United Kingdom,-1.6188777,55.008279
Burgdorf Switzerland,7.6272243,47.0559357
Ekaterinburg Russia,60.6057025,56.8389261
Germany Lithuania,25.2644337,54.6837836
Haryana India,76.085601,29.0587757
Rome Italy,12.4963655,41.9027835
Santander Spain,-3.8099803,43.4623057
Courbevoie France,2.25929,48.900552
Saffron Walden United Kingdom,0.239215,52.022593
Daresbury United Kingdom,-2.6329588,53.3407186
Brossard Canada,-73.4619103,45.4514357
Crawley United Kingdom,-0.1872275,51.1091401
Santa Clara United States,-121.9552356,37.3541079
Columbia United States,-81.0348144,34.0007104
Italy United States,-77.06046,38.91781
Durham United Kingdom,-1.584852,54.77525
Denmark United States,-81.1423236,33.3226546
Cognac France,-0.328744,45.691046
Parçay-meslay France,0.742517,47.4455826
Walldorf Germany,8.6427693,49.3063689
Cheadle Hulme United Kingdom,-2.193189,53.380149
Aarhus Denmark,10.203921,56.162939
Zubia Spain,-3.5843792,37.1197161
Farnsfield United Kingdom,-1.039752,53.103961
Newcastle United Kingdom,-1.61778,54.978252
Saint-herblain France,-1.651444,47.210335
Sophia Antipolis France,7.0552218,43.6163539
Palaiseau France,2.245748,48.714509
Melbourne Australia,144.9630576,-37.8136276
Rio De Janeiro Brazil,-43.1728965,-22.9068467
Linköping Sweden,15.6213728,58.410807
Houthalen Belgium,5.3765452,51.0312424
Edinburgh United Kingdom,-3.188267,55.953252
Bray Ireland,-6.1110741,53.200903
Baslow United Kingdom,-1.622371,53.251381
Arezzo Italy,11.8796336,43.4632839
Vanves France,2.288405,48.822484
Bundoora Australia,145.0602588,-37.6947332
Budapest Hungary,19.040235,47.497912
Tampere Finland,23.7609535,61.4977524
Pleasanton United States,-121.8757968,37.6604484
Moscow Russia,37.6172999,55.755826
Cork Ireland,-8.4756035,51.8985143
Luxembourg Luxembourg,6.1319346,49.611621
Ramonville-saint-agne France,1.4784139,43.543794
Darmstadt Germany,8.6511929,49.8728253
Sydney Australia,151.2092955,-33.8688197
Oxford United Kingdom,-1.2577263,51.7520209
Porto Portugal,-8.6291053,41.1579438
Royal Tunbridge Wells United Kingdom,0.263695,51.132377
Paterna Spain,-0.4431618,39.5037093
Cologne Germany,6.9602786,50.937531
Saint Asaph United Kingdom,-3.4418762,53.2577125
Plan-les-ouates Switzerland,6.1145793,46.1668075
Jyllinge Denmark,12.1102931,55.748496
Udine Italy,13.2345794,46.0710668
Ottawa Canada,-75.6971931,45.4215296
Modena Italy,10.9252269,44.647128
Eindhoven Netherlands,5.4697225,51.441642
Göteborg Sweden,11.97456,57.70887
Vilnius Lithuania,25.2796514,54.6871555
Douglas Isle of Man,-4.4861228,54.1523372
Reggio Nell Emilia Italy,10.6296859,44.6989932
Massy France,2.27137,48.730756
Vantaa Finland,25.0377686,60.2933524
Crolles France,5.882983,45.284906
Strasbourg France,7.7521113,48.5734053
Jönköping Sweden,14.1617876,57.7826137
San Mateo United States,-122.3255254,37.5629917
São Paulo Brazil,-46.6333094,-23.5505199
Langhus Norway,10.8461813,59.7552231
Venelles France,5.4847245,43.598546
Valbonne France,7.009186,43.64152
Biziat France,4.943679,46.216944
Chennai India,80.2707184,13.0826802
Valencia Spain,-0.3762881,39.4699075
Miskolc Hungary,20.7784384,48.1034775
Scotland United States,-98.4706085,33.6601031
Torun Poland,18.5984437,53.0137902
Pasig Philippines,121.0851097,14.5763768
Southwold United Kingdom,1.680181,52.325628
Gijón Spain,-5.6611195,43.5322015
Gijv=n Spain,-5.6611195,43.5322015
Montrouge France,2.317384,48.816363
Maribor Slovenia,15.6458812,46.5546503
Tv§by Sweden,18.1028434,59.3366269
Milano Italy,9.189982,45.4642035
Saint-genis-pouilly France,6.02513,46.2437479
Leopardstown Ireland,-6.1984079,53.2677761
Inchinnan United Kingdom,-4.440016,55.893245
Lichfield United Kingdom,-1.831672,52.681602
Hinckley United Kingdom,-1.37667,52.5454549
Villeurbanne France,4.8901709,45.771944
Gdynia Poland,18.5305409,54.5188898
Holon Israel,34.787384,32.015833
Foulum Denmark,9.584253,56.496624
Chemnitz Germany,12.9213697,50.827845
Bologna Italy,11.3426162,44.494887
Huddersfield United Kingdom,-1.7850351,53.645792
Saint Gallen Switzerland,9.3767173,47.4244818
Castries France,3.985579,43.677589
Victoria Canada,-123.3656444,48.4284207
Clermont-l'herault France,3.429495,43.62759
Greifswald Germany,13.3923414,54.0865463
Seville Spain,-5.9844589,37.3890924
Belo Horizonte Brazil,-43.9344931,-19.9166813
Zemun Serbia,20.3686508,44.8530888
Montrv©al Canada,-73.567256,45.5016889
Godalming United Kingdom,-0.612808,51.185732
Porto Alegre Brazil,-51.2176584,-30.0346471
Terrassa Spain,2.0088747,41.563211
Belgium United States,4.3673465,50.8445953
Mérignac France,-0.656358,44.8448769
Cabanillas Spain,-1.5244937,42.0322154
Repentigny Canada,-73.4400814,45.7532854
Stuttgart Germany,9.1829321,48.7758459
Katwijk Netherlands,4.4199429,52.19802
Bergamo Italy,9.6772698,45.6982642
Kenilworth United Kingdom,-1.58073,52.349557
Szczecin Poland,14.5528116,53.4285438
Cape Town South Africa,18.4240553,-33.9248685
Parma Italy,10.3279036,44.801485
Galway Ireland,-9.0567905,53.270668
Bratislava Slovakia,17.1077478,48.1485965
Raglan New Zealand,174.8717945,-37.8014057
Béziers France,3.215795,43.344233
San Jose United States,-121.8863286,37.3382082
Liège Belgium,5.5796662,50.6325574
Wiener Neustadt Austria,16.23318,47.80279
Kwun Tong Hong Kong SAR China,114.2227035,22.3103686
Ancona Italy,13.518915,43.6158299
Richmond United Kingdom,-0.303742,51.461311
Paderborn Germany,8.7575093,51.7189205
Dortmund Germany,7.4652981,51.5135872
Brisbane Australia,153.0251235,-27.4697707
Changsha China,112.938814,28.228209
Gerasdorf Bei Wien Austria,16.4690073,48.2962096
Lahore Pakistan,74.3587473,31.5203696
New Delhi India,77.2090212,28.6139391
Swansea United Kingdom,-3.943646,51.62144
Burlington United States,-73.212072,44.4758825
Innsbruck Austria,11.4041024,47.2692124
Dodoma Fm Tanganyik,35.7516069,-6.162959
Abidjan Côte d’Ivoire,-4.0082563,5.3599517
Pamplemousses Mauritius,57.575926,-20.1136008
Masaka Uganda,31.7537404,-0.3267383
Saint-beauzire France,3.181576,45.849635
Virum Denmark,12.461796,55.794614
Stansted United Kingdom,0.19691,51.905225
Tourcoing France,3.16207,50.724993
Saint Petersburg Russia,30.3350986,59.9342802
Santiago Chile,-70.6692655,-33.4488897
Camberley United Kingdom,-0.742856,51.3353899
Stockton-on-tees United Kingdom,-1.3289821,54.5704551
Warszawa Poland,21.0122287,52.2296756
Dubendorf Switzerland,8.6180128,47.3971476
Richmond Canada,-123.133569,49.1665898
Braine-l'alleud Belgium,4.3779197,50.6853626
Ghent Belgium,3.7174243,51.0543422
Beograd Serbia,20.4489216,44.786568
Caen France,-0.370679,49.182863
Mvºnster-sarmsheim Germany,7.8942758,49.9433631
Ostrau Germany,13.1639569,51.200641
Vännäs Sweden,19.752965,63.908007
North Vancouver Canada,-123.0724139,49.3199816
Dunedin New Zealand,170.5027976,-45.8787605
Lardero Spain,-2.4616508,42.4276986
Florence Italy,11.2558136,43.7695604
Évora Portugal,-7.913502,38.571431
Amaroúsion Greece,23.807655,38.0549562
Piraeus Greece,23.6469832,37.9429857
Csongrád Hungary,20.1436061,46.7084264
Sv£o Josv© Dos Campos Brazil,-45.9009074,-23.223701
Sintra Portugal,-9.3816495,38.8029127
Tudela Spain,-1.6063169,42.0613816
Saratov Russia,45.9608031,51.5923654
Epalinges Switzerland,6.674199,46.5488573
Alcv°zar De San Juan Spain,-3.2100984,39.3900748
Hangzhou China,120.15507,30.274084
Mumbai India,72.8776559,19.0759837
Perth Australia,115.8604572,-31.9505269
Lugano Switzerland,8.951052,46.0036778
Florianópolis Brazil,-48.5482195,-27.5948698
Ahmedabad India,72.5713621,23.022505
Chiasso Switzerland,9.0246111,45.8366999
Karlstad Sweden,13.5114978,59.4021806
Düsseldorf Germany,6.7734556,51.2277411
Deutsch Germany,13.4109224,52.5545726
Hsinchu Taiwan,120.9674798,24.8138287
Yangpu China,121.525727,31.259822
Burg Germany,6.3477497,49.9609248
Kalmar Sweden,16.3567791,56.6634447
Kota Bharu Malaysia,102.2376151,6.1253083
Greenwood Village United States,-104.9508141,39.6172101
Braunschweig Germany,10.5267696,52.2688736
Maringv° Brazil,-51.9330558,-23.4209995
Guipavas France,-4.4017831,48.4342821
Mont-saint-guibert Belgium,4.6106474,50.6347043
Busto Arsizio Italy,8.8531265,45.611892
The Hague Netherlands,4.3006999,52.0704978
Gauteng South Africa,28.1122679,-26.2707593
Trezzano Sul Naviglio Italy,9.0608615,45.4256331
Malmv? Sweden,13.003822,55.604981
Laval Canada,-73.712409,45.6066487
Timisoara Romania,21.2086793,45.7488716
Bozen Italy,11.3547582,46.4982953
Fengtai China,116.287149,39.858427
Krakv=w Poland,19.9449799,50.0646501
Sunnyvale United States,-122.0363496,37.36883
Rovereto Italy,11.0401399,45.89096
Belfast United Kingdom,-5.93012,54.597285
Dresden Germany,13.7372621,51.0504088
Pamplona Spain,-1.6457745,42.812526
Ängelholm Sweden,12.8638809,56.245748
Houston United States,-95.3698028,29.7604267
Longford Ireland,-7.7932573,53.7276296
Egham United Kingdom,-0.547876,51.428825
Mountain View United States,-122.0838511,37.3860517
Luton United Kingdom,-0.4200255,51.8786707
Jiangshan China,118.626991,28.73733
Oulu Finland,25.4650772,65.0120888
Capoterra Italy,8.9709827,39.1788863
Lima Peru,-77.042754,-12.0463731
Nantes France,-1.553621,47.218371
Zhongshan China,113.39277,22.517585
Osaka Japan,135.5022535,34.6937249
Kaarina Finland,22.3841265,60.4095118
Indaial Brazil,-49.2358981,-26.8997445
Gent Belgium,3.7174243,51.0543422
Neuchv¢tel Switzerland,6.9292732,46.9899874
Tromsø Norway,18.9553239,69.6492047
Tromsv? Norway,18.9553239,69.6492047
France United States,-77.0785019,38.9139493
Tabov£o Da Serra Brazil,-46.7816647,-23.6228759
Swiss United States,-81.1252955,38.2396731
Beckenham United Kingdom,-0.025813,51.40817
Szv©kesfehv©rvv°r Hungary,-63.0404872,18.0237184
Dingwall United Kingdom,-4.428411,57.595347
Villebon-sur-yvette France,2.236654,48.6964029
Senago Italy,9.1261261,45.5763629
Newcastle Upon Tyne United Kingdom,-1.61778,54.978252
Reading United Kingdom,-0.9781303,51.4542645
Grenoble France,5.724524,45.188529
Maardu Estonia,24.9671658,59.4708836
Lurate Caccivio Italy,8.9936562,45.7641553
Donostia-san Sebastián Spain,-1.9812313,43.318334
Cardiff United Kingdom,-3.17909,51.481581
Dorchester United Kingdom,-2.441181,50.7111639
Zajecar Serbia,22.2738011,43.9015048
Esenler Turkey,28.8538545,41.0794133
Villareggia Italy,7.9777751,45.2890862
Bhubaneswar India,85.8245398,20.2960587
Alcobendas Spain,-3.6372245,40.5372512
Pozuelo De Alarcón Spain,-3.8058517,40.4440627
Erkrath Germany,6.9073473,51.2213125
Haugesund Norway,5.2679869,59.413581
Pleubian France,-3.139565,48.842374
Bel Belgium,4.380329,50.665533
Zug Switzerland,8.5154946,47.1661672
London Canada,-81.2452768,42.9849233
Mokpo South Korea,126.3921664,34.8118351
Reus Spain,1.1055321,41.1498259
Quv©bec Canada,-73.5491361,52.9399159
Écully France,4.77867,45.774657
Boulogne-billancourt France,2.2399123,48.8396952
Pisa Italy,10.4016888,43.7228386
Weil Am Rhein Germany,7.6198121,47.5934368
Groningen Netherlands,6.5665017,53.2193835
Poznan Poland,16.9251681,52.406374
Medellín Colombia,-75.5742467,6.2486069
Christchurch New Zealand,172.6362254,-43.5320544
Puteaux France,2.23964,48.884748
Grimsby United Kingdom,-0.080784,53.567471
Horsham United Kingdom,-0.325858,51.062883
Gaborone Botswana,25.9231471,-24.6282079
Aix-en-provence France,5.447427,43.529742
Rezé France,-1.569382,47.190616
Verrone Italy,8.11942,45.5056248
Peterborough United Kingdom,-0.2405299,52.5694985
Montigny France,2.0360157,48.7738734
Flockton United Kingdom,-1.636486,53.630819
Guidonia Italy,12.7245045,41.9939694
Northampton United Kingdom,-0.902656,52.240477
Puchong Malaysia,101.618802,3.0327152
Gussago Italy,10.1533423,45.5876305
Zaragoza Spain,-0.8890853,41.6488226
Hathersage United Kingdom,-1.6563548,53.3300114
Grabs Switzerland,9.4440433,47.1825657
Salt Lake City United States,-111.8910474,40.7607793
Ibiza Spain,1.4821482,39.0200099
San Antonio United States,-98.4936282,29.4241219
Saint-cloud France,2.208115,48.847647
Rende Italy,16.1839028,39.3317751
Val-de-la-haye France,1.002341,49.378641
Luzern Switzerland,8.3093072,47.0501682
Einbeck Germany,9.8683087,51.8205718
Trollhättan Sweden,12.2858206,58.2834894
Montpellier France,3.876716,43.610769
Pune India,73.8567437,18.5204303
Elche Spain,-0.7125608,38.2699329
Nanshan China,113.930475,22.533012
Mölndal Sweden,12.0166669,57.65
Chardonne Switzerland,6.8342278,46.4769475
Street United States,-95.712891,37.09024
Diepenbeek Belgium,5.41336,50.91083
Quebec Canada,-73.5491361,52.9399159
Louvain-la-neuve Belgium,4.6118324,50.668081
Sandyford Ireland,-6.2207197,53.2719967
Seattle United States,-122.3320708,47.6062095
Kidderminster United Kingdom,-2.2496839,52.388596
Ham Belgium,5.1777363,51.1038173
Newbury United Kingdom,-1.3231139,51.401409
Saint Andrews United Kingdom,-2.7967214,56.3397753
Japan Indonesia,139.7213943,35.6313745
Glasnevin Ireland,-6.2762904,53.3828368
Helsingborg Sweden,12.6945121,56.0464674
Middlesbrough United Kingdom,-1.234956,54.574227
Limerick Ireland,-8.6267343,52.6638367
Leopoldshafen Germany,8.3915827,49.0788756
Smethwick United Kingdom,-1.965207,52.492401
Eßlingen Germany,9.3201122,48.7433425
Dinnington United Kingdom,-1.203068,53.372587
Waltham United States,-71.2356113,42.3764852
Compiv®gne France,2.826145,49.417816
Palokka Finland,25.7415729,62.2881368
Swavesey United Kingdom,-0.004534,52.3010639
Spain United States,-77.0510739,38.9032817
Kópavogur Iceland,-21.8832579,64.1033023
Kv=pavogur Iceland,-21.8832579,64.1033023
Midsomer Norton United Kingdom,-2.485936,51.285199
Lecce Italy,18.1750161,40.3515155
Nivelles Belgium,4.32851,50.59787
Nyarugenge Rwanda,30.0318547,-1.9850699
Bunnik Netherlands,5.2198687,52.043969
Kv?ln Germany,7.593652,47.550053
Lochristi Belgium,3.8378242,51.0974612
Voisins-le-bretonneux France,2.0436886,48.7604611
Évry France,2.441782,48.629828
Hanover Germany,9.7320104,52.3758916
Alderley Park United Kingdom,-2.2334788,53.2782292
Pinkenba Australia,153.116667,-27.433333
Tel Aviv Israel,34.7817676,32.0852999
Roermond Netherlands,5.9877715,51.1913202
Wellington New Zealand,174.776236,-41.2864603
Arenzano Italy,8.6860167,44.4058612
Leiden Netherlands,4.4970097,52.1601144
Mesa United States,-111.8314724,33.4151843
Sankt Valentin Austria,14.5254825,48.1751847
Send United Kingdom,-0.5323488,51.2881611
Boncelles Belgium,5.5364671,50.5709023
Salisbury United Kingdom,-1.794472,51.068785
Barcelonnette France,6.650463,44.3863
Wallington United Kingdom,-0.151845,51.363978
Palo Alto United States,-122.1430195,37.4418834
Port Louis Town Mauritius,57.5012222,-20.1608912
San Lazzaro Italy,12.3616807,45.4122884
Malmö Sweden,13.003822,55.604981
Yarnton United Kingdom,-1.310194,51.804213
Cham Switzerland,8.4592089,47.181225
Marden United Kingdom,0.490709,51.173613
Pilisvv?rv?svv°r Hungary,19.545477,47.2840844
Esch-sur-alzette Luxembourg,5.9860925,49.5008805
Girona Spain,2.8214264,41.9794005
Kitchener Canada,-80.4925337,43.4516395
Brescia Italy,10.2118019,45.5415526
Stow Cum Quy United Kingdom,0.225205,52.2231088
Hellerup Denmark,12.569196,55.736654
Aachen Germany,6.0838868,50.7753455
Seri Kembangan Malaysia,101.7055411,3.021998
Kingston Upon Thames United Kingdom,-0.300689,51.41233
Kilmaurs United Kingdom,-4.527757,55.639161
Aberdeen United Kingdom,-2.094278,57.149717
Szeged Hungary,20.1414253,46.2530102
Lubumbashi Congo - Kinshasa,27.5026174,-11.6876026
Coventry United Kingdom,-1.519693,52.406822
Veghel Netherlands,5.5392399,51.6157885
Calgary Canada,-114.0718831,51.0447331
Grimstad Norway,8.5948668,58.3447019
Wiesbaden Germany,8.2397608,50.0782184
Elstree United Kingdom,-0.298193,51.644142
East Godavari India,82.0407137,17.32125
Buenos Aires Brazil,-35.3273397,-7.7205245
Antwerp Belgium,4.4024643,51.2194475
Trondheim Norway,10.3950528,63.4305149
Archamps France,6.130956,46.135197
Lannion France,-3.459144,48.732084
Meylan France,5.777628,45.209786
Thessalonv?ki Greece,22.9444191,40.6400629
Hunan China,111.8568586,27.6252995
Menlo Park United States,-122.1817252,37.4529598
Balgheim Germany,8.7658142,48.0667793
Cagliari Italy,9.1216613,39.2238411
Kiev Ukraine,30.5234,50.4501
Aalst Belgium,4.0409517,50.9378101
Bangalore City India,77.5945627,12.9715987
Wales United Kingdom,-3.7837117,52.1306607
Pine Brook United States,-74.3440842,40.8674879
Penicuik United Kingdom,-3.224533,55.830932
Redcar United Kingdom,-1.0779515,54.5974636
Sundsvall Sweden,17.306927,62.390811
Chesterfield United Kingdom,-1.421629,53.235048
Enfield United Kingdom,-0.1180651,51.6622909
Padova Italy,11.8767611,45.4064349
Graz Austria,15.439504,47.070714
Jakarta Indonesia,106.845599,-6.2087634
Gv?teborg Sweden,11.97456,57.70887
Attikí Greece,23.8584737,38.0457568
Bonnières-sur-seine France,1.578521,49.037452
Guarnizo Spain,-3.8561023,43.3931902
Brussel Belgium,4.3517211,50.8503463
Tarbes France,0.078082,43.232951
Dehiwala Sri Lanka,79.8800832,6.8301185
Lisboa Portugal,-9.1393366,38.7222524
Alderley Edge United Kingdom,-2.237216,53.301554
Maynooth Ireland,-6.5918499,53.3812896
Fremont United States,-121.988583,37.5485396
Higashi-shinagawa Japan,139.751153,35.6191479
Beccles United Kingdom,1.566053,52.459333
Budrio Italy,11.5360478,44.5388539
Arco Italy,10.9097607,45.9268706
Elkton United States,-75.8332718,39.6067789
Thouarv©-sur-loire France,-1.4403729,47.267411
Newyork United Kingdom,-0.1378359,53.079011
Le Perreux-sur-marne France,2.504038,48.841386
Billy-berclau France,2.859659,50.520053
Netanya Israel,34.853196,32.321458
Finestrat Spain,-0.2125435,38.5677498
Shipston On Stour United Kingdom,-1.622814,52.0606549
Flins-sur-seine France,1.8707273,48.9646526
León Spain,-5.5670959,42.5987263
Dubai United Arab Emirates,55.2707828,25.2048493
Arcueil France,2.334955,48.80486
Caesarea Israel,34.904544,32.519016
Szv°zhalombatta Hungary,18.9096709,47.3083325
Villigen Switzerland,8.2147881,47.5262164
Leawood United States,-94.6169012,38.966673
Naples United States,-81.7948103,26.1420358
Fulham United Kingdom,-0.2016817,51.4773433
Cerreto Guidi Italy,10.8801995,43.7597972
Neuilly-sur-seine France,2.26851,48.884831
Alnwick United Kingdom,-1.706299,55.412744
Arques France,2.2948,50.73387
Turku Finland,22.2666302,60.4518126
Keflavík Iceland,-22.5582716,63.9997549
Keflavv?k Iceland,-22.5582716,63.9997549
Ísafjörður Iceland,-23.1250684,66.074878
Ingolstadt Germany,11.4257541,48.7665351
Faro Portugal,-7.9304397,37.0193548
Caselle Italy,7.6509234,45.1842302
Senovo Slovenia,15.4759099,46.019373
Elstead United Kingdom,-0.7034018,51.1851783
Ankara Turkey,32.8597419,39.9333635
Beverly Hills United States,-118.4003563,34.0736204
Le Pré-saint-gervais France,2.40557,48.885063
Donostia-san Sebastiv°n Spain,-1.9812313,43.318334
Hasselt Belgium,5.33248,50.93069
Ipoh Malaysia,101.090106,4.597479
Willebroek Belgium,4.36404,51.05983
Ferentino Italy,13.2577285,41.6956788
Genk Belgium,5.5021,50.96613
Sweden United States,-77.0588073,38.9014314
Unterföhring Germany,11.6460441,48.1916623
Helmsdale United Kingdom,-3.653533,58.117261
Sollentuna Sweden,17.9242952,59.4541218
Deggendorf Germany,12.9574787,48.8408515
Kortrijk Belgium,3.2577263,50.8194776
Newry United Kingdom,-6.34023,54.1751024
Reinach Switzerland,7.5894365,47.4906819
Amersfoort Netherlands,5.3878266,52.1561113
Sunderland United Kingdom,-1.383801,54.906869
Brodick United Kingdom,-5.1451992,55.575111
Boston United States,-71.0588801,42.3600825
L'aquila Italy,13.3995091,42.3498479
Muggia Italy,13.7667974,45.6031543
Santa Marta De Tormes Spain,-5.6262751,40.9497273
Noisy-le-roi France,2.064579,48.843815
Winnersh United Kingdom,-0.879365,51.428089
Kannur India,75.3703662,11.8744775
Derio Spain,-2.8849016,43.2955357
Samara Russia,50.2212463,53.2415041
Genoa Italy,8.946256,44.4056499
Baar Switzerland,8.526087,47.1953729
Enschede Netherlands,6.8936619,52.2215372
Warngau Germany,11.716624,47.8315755
Joinville Brazil,-48.8452269,-26.2834213
Jerusalem Israel,35.21371,31.768319
Curitiba Brazil,-49.3044253,-25.4808762
Solna Sweden,18.0124231,59.3641968
Mohali India,76.7178726,30.7046486
Wan Chai Hong Kong SAR China,114.1751471,22.276022
Borgarnes Iceland,-21.9010495,64.5609274
Grand Rapids United States,-85.6680863,42.9633599
Inverness United Kingdom,-4.224721,57.477773
Hull United Kingdom,-0.3274198,53.7676236
Angra Do Herov?smo Portugal,-27.2199893,38.6549916
Brunelles France,0.893639,48.323915
Prague Czechia,14.4378005,50.0755381
Uxbridge United Kingdom,-0.479611,51.5485
Solt Hungary,19.0108147,46.8021967
Durban South Africa,31.0218404,-29.8586804
Zagreb Croatia,15.9819189,45.8150108
Hemel Hempstead United Kingdom,-0.448632,51.753241
Wolverhampton United Kingdom,-2.12882,52.586973
Saint-gratien France,2.286571,48.970259
Bruz France,-1.747148,48.024538
Warwick United Kingdom,-1.584927,52.282316
Saint Etienne France,4.3871779,45.439695
Tianjin China,117.3616476,39.3433574
Coalville United Kingdom,-1.3677109,52.724569
West Drayton United Kingdom,-0.46541,51.502985
Le Bourget-du-lac France,5.859076,45.649392
Bièvres France,2.214436,48.754517
Biv®vres France,2.214436,48.754517
Mv©rignac France,2.287737,44.40951
Trowbridge United Kingdom,-2.208853,51.319664
Leuven Belgium,4.7005176,50.8798438
Pertuis France,5.501843,43.694275
Leichhardt Australia,151.157028,-33.8837222
Ballerup Denmark,12.354765,55.724508
Fareham United Kingdom,-1.1865868,50.8548464
Abertillery United Kingdom,-3.135369,51.732161
Burlington Canada,-79.7990319,43.3255196
Boulder United States,-105.2705456,40.0149856
Exeter United Kingdom,-3.533899,50.718412
Biel Switzerland,7.2467909,47.1367785
Istambul Turkey,28.9783589,41.0082376
Ellon United Kingdom,-2.072972,57.364597
Richmond Australia,144.998,-37.823
Plymouth United States,-70.6672621,41.9584457
Caerphilly United Kingdom,-3.218134,51.578829
St. Helier Jersey,-2.103233,49.1805019
Canterbury United Kingdom,1.0789089,51.280233
Bielsko-biala Poland,19.0583845,49.8223768
Almere Netherlands,5.2647016,52.3507849
Witney United Kingdom,-1.4850544,51.7859365
Ludlow United Kingdom,-2.7139129,52.367749
Monthey Switzerland,6.9469598,46.2521873
Caracas Venezuela,-66.9036063,10.4805937
Bari Italy,16.8718715,41.1171432
Johannesburg South Africa,28.0473051,-26.2041028
Kuopio Finland,27.6781725,62.89797
Lappeenranta Finland,28.1896627,61.0549929
Dudley United Kingdom,-2.081112,52.512255
Blackpool United Kingdom,-3.0356748,53.8175053
Surry Hills Australia,151.211111,-33.886111
Egilsstaðir Iceland,-14.3948468,65.2668743
Turin Italy,7.686864,45.0703393
Frosinone Italy,13.6362715,41.6576528
Wildberg Germany,8.7410966,48.6246322
Farnborough United Kingdom,-0.752615,51.2868939
Weston-super-mare United Kingdom,-2.977255,51.347405
Chiba-shi Japan,140.1065366,35.6074041
Ontario United States,-117.6508876,34.0633443
Muttenz Switzerland,7.6476369,47.5279292
Murchin Germany,13.7425745,53.9069987
Yverdon-les-bains Switzerland,6.641183,46.7784736
Belp Switzerland,7.499006,46.8914239
Cremona Italy,10.0226511,45.133249
Ayr United Kingdom,-4.629179,55.458564
Penafiel Portugal,-8.2896845,41.2053186
Mexico City Mexico,-99.133208,19.4326077
Nørresundby Denmark,9.935725,57.059299
Kastrup Denmark,12.6051632,55.6107703
Bellevue United States,-122.2015159,47.6101497
Cramlington United Kingdom,-1.5808,55.086136
Valencia United States,-118.5713823,34.456151
Carrara Italy,10.097677,44.0793245
Wilmington United States,-75.5483909,39.744655
Roubaix France,3.177847,50.6927049
Elgv=ibar Spain,-2.4715422,43.1832096
Leeds United Kingdom,-1.5490774,53.8007554
Kyiv Ukraine,30.5234,50.4501
Lleida Spain,0.6200146,41.6175899
Fontenay-aux-roses France,2.287181,48.789776
Orlv©ans France,1.909251,47.902964
Granada Spain,-3.5985571,37.1773363
Saint-pierre-des-corps France,0.722479,47.3898439
Detroit United States,-83.0457538,42.331427
Harlow United Kingdom,0.087806,51.767787
Axminster United Kingdom,-2.994937,50.782727
Binjiang China,120.211816,30.20856
Leganés Spain,-3.7686545,40.3319506
Levallois-perret France,2.287864,48.893217
Dakar Senegal,-17.4676861,14.716677
Bamako Mali,-8.0028892,12.6392316
Valby Denmark,12.515915,55.6633541
Bolsover United Kingdom,-1.2897209,53.231044
Sherman Oaks United States,-118.451357,34.1489719
Market Drayton United Kingdom,-2.483485,52.903552
Magdeburg-rothensee Germany,11.6589679,52.1765429
Weesp Netherlands,5.0406217,52.3080507
Hertford United Kingdom,-0.081157,51.795756
Tirana Albania,19.8186982,41.3275459
Castel Maggiore Italy,11.3637308,44.5751652
Fuzhou Shi China,119.296482,26.074478
Clermont-ferrand France,3.087025,45.777222
El Puerto De Santa María Spain,-6.2588369,36.6393281
Lidingö Sweden,18.1468001,59.36296
Lidingv? Sweden,18.1468001,59.36296
Tullinge Sweden,17.8953001,59.198328
Novara Italy,8.6221612,45.44693
Sialkot Pakistan,74.5228916,32.4944991
Le Petit Paris France,3.120418,48.645168
Plano United States,-96.6988856,33.0198431
Tauranga New Zealand,176.1651295,-37.6877975
Galgorm United Kingdom,-6.3294066,54.860562
Salaspils Latvia,24.3522717,56.8564288
Jelgava Latvia,23.7213541,56.6511091
Moissy-cramayel France,2.593706,48.627158
Bilbao Spain,-2.9349852,43.2630126
Fredensborg Denmark,12.4058351,55.974684
Cergy-pontoise France,2.100645,49.050966
Cuajimalpa Mexico,-99.2993504,19.3557507
Sassari Italy,8.5556826,40.7259269
Struer Denmark,8.589933,56.48493
Wuhan China,114.305539,30.592849
Subiaco Australia,115.8285548,-31.9469931
Riva Del Garda Italy,10.8430696,45.8891984
Bedford United Kingdom,-0.4667782,52.1386394
Lixin China,116.208635,33.144724
Garðabær Iceland,-21.8909088,64.078804
Barnsley United Kingdom,-1.479726,53.55263
Barberton United States,-81.6051221,41.012833
Ixelles Belgium,4.3666294,50.8333432
A Coruña Spain,-8.4115401,43.3623436
Uccle Belgium,4.34067,50.8023982
Bucharest Romania,26.1025384,44.4267674
Nuneaton United Kingdom,-1.465382,52.520489
Eastleigh United Kingdom,-1.374688,50.967182
Tutzing Germany,11.2772666,47.9125117
Hoofddorp Netherlands,4.6907041,52.3060853
Fourways South Africa,28.00397,-26.0254685
Heerlen Netherlands,5.9794988,50.8881742
Watford United Kingdom,-0.39032,51.656489
Daejeon South Korea,127.3845475,36.3504119
Kvistgaard Denmark,12.4998141,55.991876
Leverkusen Germany,7.0192196,51.0459248
Gennevilliers France,2.293275,48.925525
Ludhiana India,75.8572758,30.900965
Marquette Lez Lille France,3.062324,50.674339
Grabels France,3.797514,43.647718
Fribourg Switzerland,7.1619719,46.8064773
Bangkok Thailand,100.5017651,13.7563309
Boecillo Spain,-4.7005972,41.5415157
Milton Australia,150.4390623,-35.3193792
Yerevan Armenia,44.515209,40.1872023
Ferns Ireland,-6.4980105,52.5909249
Linares Spain,-3.6369803,38.0969098
Altrincham United Kingdom,-2.3488983,53.3869046
Memphis United States,-90.0489801,35.1495343
Cheadle United Kingdom,-2.214115,53.394361
Colomiers France,1.336579,43.612189
Bournemouth United Kingdom,-1.880769,50.719164
Wolfen Germany,12.2698908,51.6629152
Winnipeg Canada,-97.1383744,49.895136
Aldbourne United Kingdom,-1.62053,51.479233
Pécs Hungary,18.232266,46.0727345
Dhaka Bangladesh,90.4125181,23.810332
Sèvres France,2.2109771,48.8212407
Kragujevac Serbia,20.9114225,44.0127932
Daxing China,116.341395,39.726929
Shijingshan China,116.222981,39.906611
Berwick-upon-tweed United Kingdom,-2.005395,55.770242
Plovdiv Bulgaria,24.7452904,42.1354079
Leicester United Kingdom,-1.1397592,52.6368778
Farringdon United Kingdom,-0.1042414,51.5215324
Palermo Italy,13.3614868,38.11569
Botafogo Brazil,-43.1807842,-22.9511931
Hastings United Kingdom,0.573453,50.854259
Salamanca Spain,-5.6635397,40.9701039
Konstantynow Lodzki Poland,19.3254913,51.7476048
Bergen Norway,5.3220544,60.3912628
Komstad Sweden,14.6127266,57.403337
Mansfield United States,-97.1416768,32.5631924
Aschheim Germany,11.7159097,48.1723102
Umeå Sweden,20.2630354,63.8258471
Ramat Gan Israel,34.824785,32.068424
Debrecen Hungary,21.6273124,47.5316049
Leigh United Kingdom,-2.518727,53.496115
Mandeville United States,-90.0656311,30.3582506
Lusaka Zambia,28.3228165,-15.3875259
Berkshire United States,-73.1821623,42.311782
Gdansk Poland,18.6466384,54.3520252
Chisinau Moldova,28.8638102,47.0104529
Brooklyn United States,-73.9441579,40.6781784
Ranchi India,85.309562,23.3440997
Bogotv° Colombia,-74.072092,4.7109886
Magda Brazil,-50.2250411,-20.6427648
Rapperswil Switzerland,8.8184374,47.2266239
South Shields United Kingdom,-1.427406,54.999424
Capelle Aan Den Ijssel Netherlands,4.5777053,51.9301505
Ollioules France,5.847652,43.139901
Cranfield United Kingdom,-0.6087411,52.0686347
Tübingen Germany,9.0576448,48.5216364
Fundão Portugal,-7.5010773,40.137963
Ajdovscina Slovenia,13.909914,45.8869025
Cwmbran United Kingdom,-3.0317889,51.6496546
Oegstgeest Netherlands,4.4748104,52.1862262
Madipakkam India,80.1960832,12.9647462
Oxon Hill United States,-76.9897278,38.8033178
Pardubice Czechia,15.7811994,50.0343092
Noida India,77.3910265,28.5355161
Stoke-on-trent United Kingdom,-2.179404,53.002668
vÅguas Claras Brazil,46.474263,40.1114169
Chester United Kingdom,-2.893075,53.193392
Mutilva Baja Spain,-1.6214406,42.7926179
Basovizza Italy,13.8622869,45.6413652
Dún Laoghaire Ireland,-6.1338666,53.2943958
Haarlem Netherlands,4.6462194,52.3873878
Saint-romain-de-colbosc France,0.364878,49.528213
La Roche-sur-yon France,-1.426442,46.670511
Jinan China,117.120095,36.6512
Belgrade NA,20.4489216,44.786568
Zhangshan China,119.887582,30.385033
Ascot United Kingdom,-0.6755624,51.4062365
Newhouse United Kingdom,-3.9282331,55.8319
Worcester United States,-71.8022934,42.2625932
Hoevelaken Netherlands,5.4642877,52.1723953
Blantyre United Kingdom,-4.09492,55.793868
Alicante Spain,-0.4906855,38.3459963
Milton Ernest United Kingdom,-0.5118832,52.1933479
Little Clacton United Kingdom,1.1411119,51.825438
Palmerston North New Zealand,175.6082145,-40.3523065
Gaillard France,6.208959,46.184685
Ireland United States,-104.9962861,39.7491125
Antrim United Kingdom,-6.2072498,54.7195338
Farmsum Netherlands,6.92796,53.3230048
Midview City Singapore,103.8342113,1.358803
Yaroslavl Russia,39.8844709,57.6260744
Murcia Spain,-1.1306544,37.9922399
Cantanhede Portugal,-8.5933462,40.3470015
Mile End United Kingdom,-0.0330122,51.5235453
Guimarães Portugal,-8.2917857,41.44253
Taastrup Denmark,12.2979366,55.6460162
Bridgend United Kingdom,-3.576945,51.504286
Saint-priest-ligoure France,1.28942,45.649583
Noáin Spain,-1.6333848,42.7592397
Ness Ziona Israel,34.801327,31.932111
Mainz Germany,8.2472526,49.9928617
Romainville France,2.435048,48.886112
Oldham United Kingdom,-2.1113659,53.5409298
Rennes France,-1.6777926,48.117266
Saint Ives United Kingdom,-5.4908864,50.2083858
Solihull United Kingdom,-1.77761,52.411811
Nazeing United Kingdom,0.048348,51.740644
Hv?rsholm Denmark,12.5049241,55.883514
San Sebastian Spain,-1.9812313,43.318334
Torino Italy,7.686864,45.0703393
Feira Portugal,-8.555621,40.9281143
Zhuhai China,113.576677,22.270978
Castellón Spain,-0.1494988,40.1451772
Finans Turkey,35.5666667,38.6833333
Oxton United Kingdom,-3.0433301,53.3829513
Cumberland United States,-78.7625185,39.6528654
Marche-en-famenne Belgium,5.3441606,50.2282896
Hook United Kingdom,-0.963043,51.280906
Unanderra Australia,150.844722,-34.453611
Tunis Tunisia,10.1815316,36.8064948
Caldas Da Rainha Portugal,-9.135404,39.4048977
Hobart Australia,147.3271949,-42.8821377
City Of London United Kingdom,-0.0909852,51.5123443
Drammen Norway,10.2044565,59.7440738
Fornebu Norway,10.6286999,59.8995185
Brasília Brazil,-47.9218204,-15.826691
Guwahati India,91.7362365,26.1445169
Nederweert Netherlands,5.7527014,51.2865631
Dongan South Korea,126.9514497,37.3925838
Armthorpe United Kingdom,-1.0522282,53.5352099
Spanish Canada,-82.3422779,46.1947959
Rimini Italy,12.5695158,44.0678288
Royston United Kingdom,-0.024066,52.048142
Novi Sad Serbia,19.8335496,45.2671352
Mayfair United Kingdom,-0.147806,51.5116269
Tartu Estonia,26.7290383,58.377983
Xiamen China,118.089425,24.479833
Lviv Ukraine,24.029717,49.839683
Hackney United Kingdom,-0.0724376,51.573445
Baracaldo Spain,-2.9862029,43.2969875
Wilmslow United Kingdom,-2.229409,53.328
Louth Ireland,-6.4889423,53.9252324
Brentford United Kingdom,-0.3101169,51.486073
Trent United Kingdom,-1.1574246,52.9376907
Ann Arbor United States,-83.7430378,42.2808256
Maroubra Australia,151.2437,-33.9495
St. John's Canada,-52.7125768,47.5615096
Lommel Belgium,5.3110063,51.2304193
Grindavík Iceland,-22.4383818,63.8441808
Grindavv?k Iceland,-22.4383818,63.8441808
Weybridge United Kingdom,-0.457904,51.3716269
Thiruvananthapuram India,76.9366376,8.5241391
Odense Denmark,10.40237,55.403756
Limeira Brazil,-47.4097695,-22.5838264
Miami Beach United States,-80.1300455,25.790654
Vadodara India,73.1812187,22.3071588
Trieste Italy,13.7768182,45.6495264
Preston United Kingdom,-2.70309,53.763201
Hefei China,117.227219,31.820591
Oviedo Spain,-5.8493887,43.3619145
Venice Italy,12.3155151,45.4408474
Peterborough Canada,-78.319747,44.309058
North Shields United Kingdom,-1.449138,55.010762
Le Bouscat France,-0.5945974,44.8637555
Hv?fn Iceland,-15.2020077,64.2497026
Dana Point United States,-117.6981014,33.4672256
Nigrv°n Spain,-117.1599693,32.7089347
Zurich Switzerland,8.541694,47.3768866
Enniskillen United Kingdom,-7.6315336,54.3438243
Manorbier United Kingdom,-4.797414,51.646019
Skretting Norway,5.7480559,58.9417456
Bonn Germany,7.0982068,50.73743
Vintrie Sweden,12.9630863,55.5527047
Chaoyang China,120.4493879,41.57365
Kreuzberg Germany,13.4065791,52.4983442
Penang Malaysia,100.3326786,5.4163935
Herzliya Israel,34.844675,32.162413
Harpenden United Kingdom,-0.358953,51.81846
Gosselies Belgium,4.4319559,50.4687201
Mas-de-londres France,3.752129,43.781528
Marbella Spain,-4.8824474,36.510071
Chicago United States,-87.6297982,41.8781136
Richmond Upon Thames United Kingdom,-0.3037709,51.4613054
Portsmouth United Kingdom,-1.0879769,50.8197675
Cortil-wodon Belgium,4.95689,50.56767
Koyang South Korea,126.8320201,37.6583599
Lidcombe Australia,151.0435043,-33.865214
Bedford Canada,-63.6908522,44.7246629
Sandnes Norway,5.7329455,58.8532585
Southend-on-sea United Kingdom,0.7077123,51.5459269
Chelmsford United Kingdom,0.4685497,51.7355868
Frodsham United Kingdom,-2.7245643,53.2967045
Malma Sweden,13.003822,55.604981
Kingsey Falls Canada,-72.0712829,45.8606766
Silkeborg Denmark,9.5549217,56.176362
Yountville United States,-122.3608105,38.4015781
Cheltenham United Kingdom,-2.0782533,51.8993855
Montepulciano Italy,11.7872467,43.0986938
Spånga Sweden,17.8999899,59.3810033
Lys-lès-lannoy France,3.216898,50.67452
Bourn United Kingdom,-0.0634401,52.1908912
Kramfors Sweden,17.7862946,62.9284332
Labège France,1.5280556,43.5367334
China Japan,116.426915,39.973922
Kaunas Lithuania,23.9035965,54.8985207
Zwingenberg Germany,8.6109754,49.7250007
Aliso Viejo United States,-117.7262981,33.5684605
Siena Italy,11.3307574,43.318809
Issoire France,3.248128,45.54151
Mataró Spain,2.4447406,41.5381124
Matarv= Spain,2.4447406,41.5381124
Newmarket Canada,-79.461256,44.059187
Boadilla Del Monte Spain,-3.8887699,40.4122794
Asnières France,2.285369,48.914155
Kilchberg Switzerland,8.5452125,47.3220092
Tralee Ireland,-9.6999325,52.2713096
Vv§rmland Sweden,13.2354024,59.7294065
Teddington United Kingdom,-0.331342,51.426799
Soulac-sur-mer France,-1.123258,45.515125
Itchenor United Kingdom,-0.866487,50.806531
Heiligenhaus Germany,6.9655959,51.3273148
Gibraltar Gibraltar,-5.353585,36.140751
Spalding United Kingdom,-0.1537024,52.7901016
Vigo Spain,-8.7207268,42.2405989
Chongqing China,106.912251,29.4315861
Kurume Japan,130.5083557,33.3192356
Oldenburg Germany,8.2145521,53.1434501
Bayreuth Germany,11.5713346,49.9456399
Donegal Ireland,-8.1096143,54.653827
Lagos Nigeria,3.3792057,6.5243793
Saltsjöbaden Sweden,18.3110523,59.278744
's-hertogenbosch Netherlands,5.3036748,51.6978162
Los Gatos United States,-121.9623751,37.2358078
Scunthorpe United Kingdom,-0.654413,53.588646
Collingwood Australia,144.98815,-37.8019
Winchester United Kingdom,-1.310142,51.059771
Walsall United Kingdom,-1.982919,52.586214
Goa India,74.123996,15.2993265
São Leopoldo Brazil,-51.150283,-29.7549941
Lissone Italy,9.242569,45.6130379
Swanley Junction United Kingdom,0.177326,51.396531
Le Creusot France,4.4278,46.805351
Donetsk Russia,39.9653797,48.3321569
Villaz-saint-pierre Switzerland,6.961234,46.7209743
Saint-augustin Canada,-58.6515444,51.2327688
Labv®ge France,6.9206498,47.5496908
Leamington Spa United Kingdom,-1.5200789,52.2851905
Alton Barnes United Kingdom,-1.849501,51.356863
Mustasaari Finland,21.6820104,63.1140608
Thorncombe United Kingdom,-2.887931,50.825275
Hamilton Canada,-79.8711024,43.2557206
Piracicaba Brazil,-47.6478542,-22.7355889
Esher United Kingdom,-0.365927,51.369487
Foster City United States,-122.2710788,37.5585465
Brno Czechia,16.6068371,49.1950602
Bulgaria Italy,23.3310965,42.6949819
Bedale United Kingdom,-1.5933179,54.2887008
Coimbrv£ Portugal,-8.4102573,40.2033145
Firenze Italy,11.2558136,43.7695604
Ware United Kingdom,-0.028177,51.810437
Colombo Sri Lanka,79.861243,6.9270786
España Ecuador,-78.4901562,-0.1989544
Oshawa Canada,-78.8657912,43.8970929
Nicosia Cyprus,33.3822764,35.1855659
Limassol Cyprus,33.0226174,34.7071301
Naples Italy,14.26812,40.8517983
Kami-meguro Japan,139.6949664,35.6425261
Brecon United Kingdom,-3.391463,51.9489469
Katrineholm Sweden,16.2054756,58.9955511
Lerum Sweden,12.2688196,57.7694839
Werl Germany,7.9114426,51.5583773
Henley In Arden United Kingdom,-1.779866,52.292549
Amstelveen Netherlands,4.8419936,52.2942064
Léognan France,-0.59709,44.727859
Dongguan China,113.751799,23.020673
San Vicente Del Raspeig Spain,-0.5352356,38.4101441
Farmington Hills United States,-83.3677168,42.4989936
Kempele Finland,25.5034842,64.9129283
Slough United Kingdom,-0.5950406,51.5105384
Ferrara Italy,11.619787,44.8381237
Croydon United Kingdom,-0.098234,51.376165
Linlithgow United Kingdom,-3.6025847,55.9716266
Karlsruhe Germany,8.4036527,49.0068901
Darlinghurst Australia,151.2204441,-33.8780176
Skive Denmark,9.0309083,56.5651232
Requena Spain,-1.0993366,39.4890265
Ravenna Italy,12.2035294,44.4183598
Haverhill United Kingdom,0.440945,52.082766
Petaling Malaysia,101.5359674,3.1846237
Timbav?ba Brazil,-35.317997,-7.5090469
Camerano Italy,13.5489586,43.5313513
Niort France,-0.464777,46.323716
Markham Canada,-79.3370188,43.8561002
Langhirano Italy,10.2686946,44.6145497
Saint-malo France,-2.025674,48.649337
Pornic France,-2.104444,47.115491
Tredegar United Kingdom,-3.246775,51.772619
Guelph Canada,-80.2481666,43.5448048
Windsor United Kingdom,-0.613576,51.4817279
Le Kremlin-bicêtre France,2.356972,48.810108
Leganv©s Spain,-3.7686545,40.3319506
Devizes United Kingdom,-1.994828,51.3489069
Sea Island United States,-81.3498179,31.1835648
Smiths Falls Canada,-76.0216189,44.903748
Cv=rdoba Spain,-4.7793835,37.8881751
Burnaby Canada,-122.9805104,49.2488091
Jyväskylä Finland,25.7472567,62.2426034
Vv©zv©nobres France,-56.3354752,-14.7185532
Selangor Malaysia,101.5183469,3.0738379
Broxburn United Kingdom,-3.467681,55.934161
Campina Brazil,-47.073845,-22.9329252
Jalandhar India,75.5761829,31.3260152
Denmark Australia,117.35065,-34.9617565
Hitchin United Kingdom,-0.283414,51.94921
L'hospitalet De Llobregat Spain,2.1164942,41.3661865
Broughton Vale Australia,150.7156265,-34.7327123
Squamish Canada,-123.1558121,49.7016339
Nijmegen Netherlands,5.8428281,51.8448837
Saint Athan United Kingdom,-3.416546,51.403971
Parkville Australia,144.9485258,-37.7792703
Colchester United Kingdom,0.891874,51.895927
Matosinhos Portugal,-8.6962775,41.1844362
Oakville Canada,-79.6876659,43.467517
Herlev Denmark,12.4215514,55.736943
Yorkshire United States,-78.509288,42.4897798
Cardiff Australia,151.6625717,-32.9399498
Pérols France,3.954211,43.563782
Åkersberga Sweden,18.3107831,59.4802773
Slinfold United Kingdom,-0.404297,51.070901
Lysaker Norway,10.640499,59.9131287
Mollet del Vallv®s Spain,2.2089109,41.5450948
Szombathely Hungary,16.6218441,47.2306851
Angers France,-0.5518257,47.4711616
Aycliffe United Kingdom,-1.5630318,54.5961775
Vélizy-villacoublay France,2.190408,48.787899
Vv©lizy-villacoublay France,2.190408,48.787899
Belmont Australia,115.9261098,-31.953847
Ultimo Australia,151.19696,-33.88223
North Point Hong Kong SAR China,114.192803,22.2884683
Chilly-mazarin France,2.310271,48.705134
Mamer Luxembourg,6.0211741,49.6294233
Purfleet United Kingdom,0.2433122,51.4867106
Toulon France,5.928,43.124228
North Melbourne Australia,144.946667,-37.799167
Messina Italy,15.5542057,38.1937335
Champs-sur-marne France,2.602651,48.852775
Stirling United Kingdom,-3.9369029,56.1165227
Cambridge Canada,-80.3144276,43.3616211
Arkhangelsk Russia,40.5601553,64.5472507
Barnet United Kingdom,-0.1529361,51.625149
Longgang China,114.246899,22.720974
Potsdam Germany,13.0644729,52.3905689
Kelowna Canada,-119.4960106,49.8879519
Islington United Kingdom,-0.1058058,51.5465063
Swindon United Kingdom,-1.7797176,51.5557739
Albion Park Australia,150.7737333,-34.5759492
Bydgoszcz Poland,18.0084378,53.1234804
Borgonuovo Italy,11.2736358,44.4406982
Cluj-napoca Romania,23.6236353,46.7712101
Riehen Switzerland,7.6499111,47.5848274
Lloydminster Canada,-110.0061451,53.2779625
Frederiksberg Denmark,12.513321,55.677069
Louviers France,1.1686123,49.2152477
Machecoul France,-1.817202,46.992283
Meppel Netherlands,6.1937187,52.6921234
Bárcena De Pie De Concha Spain,-4.055505,43.1276249
Bv°rcena De Pie De Concha Spain,-4.055505,43.1276249
Hampshire United States,-72.6624209,42.3471357
Montecelio Italy,12.7245045,41.9939694
Vitoria Spain,-2.6817918,42.8591656
Snodland United Kingdom,0.445068,51.3313
South Melbourne Australia,144.96,-37.835
Milton Keynes United Kingdom,-0.7594171,52.0406224
Laupheim Germany,9.8829174,48.2303503
Bacup United Kingdom,-2.201259,53.707167
Lod Israel,34.888075,31.951014
Mulhouse France,7.335888,47.750839
Budaörs Hungary,18.9529586,47.4621396
Colombiano Colombia,-74.297333,4.570868
Waterlooville United Kingdom,-1.028751,50.890312
Midlothian United States,-77.6490005,37.5061069
Sandwich United Kingdom,1.337427,51.274017
Villach Austria,13.85062,46.60856
Wetzlar Germany,8.5081645,50.5589802
Gyor Hungary,17.6503974,47.6874569
Rostock Germany,12.0991466,54.0924406
Chasse-sur-rhône France,4.8138599,45.5794897
Stein Netherlands,5.7662196,50.9679738
Wageningen Netherlands,5.6653948,51.9691868
Sassuolo Italy,10.7847741,44.54433
Surat India,72.8310607,21.1702401
Pontevedra Spain,-8.6446202,42.4298846
Argentan France,-0.016566,48.744001
Libourne France,-0.243985,44.912998
Köln Germany,6.9602786,50.937531
Taufkirchen Germany,11.6166508,48.0500225
Hampton In Arden United Kingdom,-1.70165,52.4253659
Liskeard United Kingdom,-4.464719,50.45552
Billingshurst United Kingdom,-0.451462,51.022909
Exminster United Kingdom,-3.494876,50.6765649
Haverfordwest United Kingdom,-4.971319,51.800475
Marlow United Kingdom,-0.7769422,51.5719443
Accra Ghana,-0.1869644,5.6037168
Shrewsbury United Kingdom,-2.7553268,52.7073029
Changchun China,125.323544,43.817071
Utrecht Netherlands,5.1214201,52.0907374
Paignton United Kingdom,-3.564235,50.43508
Salford United Kingdom,-2.2901264,53.4875235
Nandrin Belgium,5.4198465,50.5071457
Baotou China,109.840313,40.657978
Tenterden United Kingdom,0.689122,51.069358
Lisbon Portugal,-9.1393366,38.7222524
Kirkland Canada,-73.8623337,45.4560415
Tonbridge United Kingdom,0.27568,51.195043
Drumcondra Ireland,-6.25786,53.3633833
Indore India,75.8577258,22.7195687
Paddington Australia,151.2262353,-33.8850215
Nuremberg Germany,11.0766654,49.4521018
Pelotas Brazil,-52.3375886,-31.7653989
Dv?n Laoghaire Ireland,-6.1338666,53.2943958
Geelong Australia,144.3617186,-38.1499181
Oldbury United Kingdom,-2.015907,52.504923
Quzhou China,118.859457,28.970079
Pont-l'eveque France,0.182766,49.284982
Mv°laga Spain,-2.6550708,43.4095235
Aubervilliers France,2.384049,48.912259
Erembodegem Belgium,4.060892,50.9206095
Dorking United Kingdom,-0.332378,51.232202
Wuxi China,120.31191,31.491169
Changping China,113.993116,22.974855
Shenyang China,123.431472,41.805699
Trento Italy,11.1217486,46.0747793
Santa Maria Brazil,-53.8129003,-29.687634
Oldenburg In Holstein Germany,10.8899227,54.2904694
Germany United States,-75.195219,39.9566794
Newport United Kingdom,-2.997664,51.584151
Italia United States,-77.06046,38.91781
Woodbridge United Kingdom,1.312571,52.095481
North Pole United States,-147.3494443,64.7511111
Sutton Coldfield United Kingdom,-1.824042,52.570385
Weiler-simmerberg Germany,9.9145325,47.58252
Chandlers Ford United Kingdom,-1.379259,50.983953
Bassano Del Grappa Italy,11.7272747,45.7657286
Solbiate Olona Italy,8.8829406,45.6551939
Tordera Spain,2.7178464,41.6972043
Scandiano Italy,10.6909273,44.5982342
Cologno Monzese Italy,9.2787075,45.528603
Mittweida Germany,12.9740557,50.9853149
Slingsby United Kingdom,-0.932205,54.166906
Cincinnati United States,-84.5120196,39.1031182
Lisburn United Kingdom,-6.0580106,54.516246
Wokingham United Kingdom,-0.833861,51.410457
Balozi Latvia,24.12987,56.8691589
Crv©teil France,4.683794,44.55061
Prishtinë Serbia,21.1655028,42.6629138
Civitanova Marche Alta Italy,13.6779305,43.3183208
Kingswinford United Kingdom,-2.169995,52.4981719
Hirosaki Japan,140.4640543,40.6030626
Kavála Greece,24.412866,40.937607
Örnsköldsvik Sweden,18.7166166,63.2900474
Mechelen-bovelingen Belgium,5.26049,50.74054
Ghaziabad India,77.4537578,28.6691565
Brabrand Denmark,10.106763,56.153128
Dartford United Kingdom,0.216872,51.44621
Las Vegas United States,-115.1398296,36.1699412
Schlieren Switzerland,8.448795,47.3982611
Viljandi Estonia,25.5859692,58.363476
Cadelbosco Di Sopra Italy,10.6003865,44.7624058
Ladera Ranch United States,-117.6411717,33.550735
Essen Germany,7.0115552,51.4556432
Las Rozas De Madrid Spain,-3.8757916,40.4935329
Hägersten Sweden,18.0065044,59.3035659
Dundalk Ireland,-6.405957,53.9979451
Kanata Canada,-75.8986835,45.3088185
Klang Malaysia,101.4455621,3.044917
Imola Italy,11.7124294,44.3599996
Spennymoor United Kingdom,-1.58552,54.697721
Clontarf Ireland,-6.2045103,53.3660165
Scottsdale United States,-111.9260519,33.4941704
Market Harborough United Kingdom,-0.921517,52.475769
Tordas Hungary,18.7483302,47.3440943
Saint Albans United Kingdom,-0.339436,51.752725
Atherton United States,-122.197743,37.4613272
Barendrecht Netherlands,4.5485809,51.8515088
Mannheim Germany,8.4660395,49.4874592
Southfield United States,-83.2218731,42.4733688
Miami United States,-80.1917902,25.7616798
Wayne United States,-83.336188,42.2790746
Breda Netherlands,4.768323,51.5719149
Krasnodar Russia,38.9872209,45.0392674
Ampang Malaysia,101.7624521,3.149099
Richmond Hill Canada,-79.4402808,43.8828401
Welwyn Garden City United Kingdom,-0.208661,51.8031689
Olton United Kingdom,-1.8093642,52.4387354
England Germany,-1.1743197,52.3555177
Keele United Kingdom,-2.2873404,53.0038224
Badajoz Spain,-6.9706535,38.8794495
Cornwall Canada,-74.730345,45.0212762
Boulogne France,1.613334,50.725231
Tranent United Kingdom,-2.954526,55.94451
Patras Greece,21.734574,38.2466395
Martlesham United Kingdom,1.280565,52.073269
Lomazzo Italy,9.0365349,45.6984251
Kendal United Kingdom,-2.74629,54.328006
Xuhui China,121.436539,31.188637
Irigny France,4.814016,45.67497
Camponogara Italy,12.0728499,45.383559
Sevilla Spain,-5.9844589,37.3890924
Grand Baie Mauritius,57.5816352,-20.0089204
Fröndenberg Germany,7.748431,51.501482
Grand Cayman Cayman Islands,-81.2408689,19.3221698
Port Talbot United Kingdom,-3.784097,51.5946799
Sausalito United States,-122.4852507,37.8590937
Kfar Saba Israel,34.90761,32.178195
Hulst Netherlands,4.0512154,51.2789013
Monticello Conte Otto Italy,11.5821713,45.5955176
Adlershof Germany,13.5421149,52.434879
Gardelegen Germany,11.401844,52.5268133
Vaud Switzerland,6.536765,46.5613135
Vimercate Italy,9.3684135,45.6158614
Napoli Italy,14.26812,40.8517983
Casoli Italy,14.2924627,42.1132149
Monza Italy,9.2744485,45.5845001
Rumson United States,-73.9990269,40.372054
Derby United Kingdom,-1.4746186,52.9225301
Tondela Portugal,-8.0800471,40.5168388
Breukelen Netherlands,5.0013289,52.1710222
Brabant France,5.316667,49.266667
Lévis Canada,-71.2464591,46.7382265
Wambrechies France,3.052377,50.68752
Albacete Spain,-1.8585424,38.994349
Gohory France,1.228645,48.167166
Bochum Germany,7.2162363,51.4818445
Prv©veranges France,2.250444,46.435863
Lulev• Sweden,21.7648398,65.7534521
Buderim Australia,153.053,-26.685
Hamilton United Kingdom,-4.053679,55.777633
Arlington United States,-77.0909809,38.8816208
Ballstad Norway,13.548148,68.0755764
Pontypridd United Kingdom,-3.342314,51.600774
Warmond Netherlands,4.4992001,52.1942139
Martillac France,-0.543056,44.712698
Encinitas United States,-117.2919818,33.0369867
El Salvador Spain,-89.2333174,13.6936131
Livingston United Kingdom,-3.518068,55.900708
Thalwil Switzerland,8.5644799,47.2949282
Stafford United Kingdom,-2.12066,52.806693
Augsburg Germany,10.89779,48.3705449
Martinsried Germany,11.451958,48.1089197
Großalmerode Germany,9.7860061,51.2587473
Laredo Spain,-3.428383,43.4096287
Agoncillo Spain,-2.2933205,42.4475004
Marcianise Italy,14.2977433,41.0152357
Walled Lake United States,-83.4810481,42.537811
Umev• Sweden,20.2630354,63.8258471
Altopascio Italy,10.6759772,43.8142453
Orsay France,2.189617,48.697161
Linz Austria,14.28583,48.30694
Huesca Spain,-0.4078058,42.131845
Tarragona Spain,1.2444909,41.1188827
Sint-oedenrode Netherlands,5.4620126,51.5655457
Woking United Kingdom,-0.5600349,51.316774
Svendborg Denmark,10.607282,55.067434
Coimbra Portugal,-8.4102573,40.2033145
Burnley United Kingdom,-2.2405035,53.7892877
Holtzheim France,7.649516,48.560479
Las Rozas Spain,-3.8757916,40.4935329
Scarborough Canada,-79.2317521,43.7764258
Marlborough United States,-71.5522874,42.3459271
Poole United Kingdom,-1.987248,50.71505
Cascais Portugal,-9.4207438,38.6967571
Montemuro Portugal,-8.0172222,40.9644444
Piubega Italy,10.5330503,45.226218
Hexham United Kingdom,-2.1121439,54.972665
Yavne Israel,34.739449,31.877958
Varna Bulgaria,27.9147333,43.2140504
Freiburg Germany,7.8421043,47.9990077
Cadeo Italy,9.8310814,44.9743775
Zapopan Mexico,-103.416501,20.6719563
Lecco Italy,9.3976704,45.8565698
Scandicci Italy,11.1504111,43.7307033
Wiltshire United States,-1.9927105,51.3491996
Wilderswil Switzerland,7.8689183,46.6652174
Serle Italy,10.3701811,45.5646052
Maidstone United Kingdom,0.522699,51.270363
Llanidloes United Kingdom,-3.540195,52.447794
Royal Wootton Bassett United Kingdom,-1.902318,51.541395
Strathaven United Kingdom,-4.064323,55.675627
Samone Italy,11.5224928,46.0802237
Verona Italy,10.9916215,45.4383842
Anzola Italy,11.1927492,44.5461898
Stavanger Norway,5.7331074,58.9699756
West Molesey United Kingdom,-0.3562949,51.400766
Burg Auf Fehmarn Germany,11.1952637,54.4392933
Chepstow United Kingdom,-2.673804,51.641856
Valletta Malta,14.5145528,35.8989085
Kajaani Finland,27.7278497,64.2221775
Carugate Italy,9.3391197,45.5489396
Bussigny Switzerland,6.558615,46.5517429
Rousset France,5.622019,43.480621
Cornwell United Kingdom,-5.0527125,50.2660471
Binton United Kingdom,-1.794668,52.185503
Le Relecq-kerhuon France,-4.39258,48.406325
Ventspils Latvia,21.5647066,57.3937216
Unin Poland,14.632508,53.8937955
Chippenham United Kingdom,-2.1195157,51.461514
Thalheim Germany,12.8474361,50.6991692
Vitoria-gasteiz Spain,-2.6817918,42.8591656
Motherwell United Kingdom,-3.9810968,55.7832092
Chiba Japan,140.1065366,35.6074041
San Fernando De Henares Spain,-3.5104537,40.4290529
San Pedro Del Pinatar Spain,-0.7913131,37.8354703
Maia Portugal,-8.621049,41.2278891
Ningbo China,121.54399,29.868336
Clare Ireland,-8.9811351,52.904532
Holzgerlingen Germany,9.0181128,48.6394255
Harrow United Kingdom,-0.341995,51.580559
Ranelagh Ireland,-6.2549962,53.3252667
Austin United States,-97.7430608,30.267153
Lanjarón Spain,-3.4795035,36.9187716
Staffordshire Reef Australia,143.7053732,-37.7452902
Macclesfield United Kingdom,-2.119287,53.258663
Mechelen Belgium,4.4775362,51.0258761
Stellenbosch South Africa,18.860152,-33.9321045
Folkestone United Kingdom,1.169456,51.081397
Dijon France,5.04148,47.322047
Ecclesfield United Kingdom,-1.4933912,53.4569161
Diss United Kingdom,1.108394,52.376491
Issy-les-moulineaux France,2.2743419,48.8245306
Wädenswil Switzerland,8.6718189,47.2296871
Irkutsk Russia,104.3050183,52.2869741
Zamosc Poland,23.2519685,50.7230879
Castlegar Canada,-117.6593341,49.3237408
Bondoufle France,2.376663,48.612707
Berkeley Heights United States,-74.4310524,40.6808726
Canberra Australia,149.1300092,-35.2809368
Perreux-sur-marne France,2.504038,48.841386
Waardenburg Netherlands,5.2570147,51.8316905
Glenrothes United Kingdom,-3.15986,56.200842
Eastbourne United Kingdom,0.290472,50.768035
Northwich United Kingdom,-2.5181321,53.2586803
Armadale Australia,116.0128764,-32.1473012
Docklands Australia,144.9465764,-37.8190118
Bruchsal Germany,8.5844107,49.1249712
Obsteig Austria,10.92851,47.29792
Huntingdon United Kingdom,-0.182552,52.33146
Kingston Canada,-76.4859544,44.2311717
Westlands Kenya,36.812022,-1.2675001
Genève Switzerland,6.1431577,46.2043907
Naucalpan De Juv°rez Mexico,-99.245302,19.4630841
Stabekk Norway,10.6014445,59.9083851
Hildesheim Germany,9.9579652,52.154778
Manno Switzerland,8.9194112,46.0342979
Frensham United Kingdom,-0.7946868,51.1657735
Tyresö Sweden,18.2964802,59.2340095
Chatel-saint-denis Switzerland,6.9010895,46.5269159
Kanpur India,80.3318736,26.449923
Waltham Abbey United Kingdom,0.002723,51.685034
Heraklion Greece,25.1442126,35.3387352
Hørsholm Denmark,12.5049241,55.883514
Brockenhurst United Kingdom,-1.575726,50.818863
Birkerød Denmark,12.4221119,55.844295
Singen Germany,8.8722387,47.7670971
Wedel Germany,9.7137465,53.5823813
Castelldefels Spain,1.9766294,41.2800161
Tajonar Spain,-1.609242,42.7685879
Midrand South Africa,28.1262927,-25.9991795
La Plaine-saint-denis France,2.3614119,48.9122322
Chapelhall United Kingdom,-3.945444,55.846679
Praha Czechia,14.4378005,50.0755381
Rubiera Italy,10.7806381,44.6529827
Marylebone United Kingdom,-0.1498955,51.5188746
Villorba Italy,12.2604653,45.7307784
Gland Switzerland,6.2698809,46.4203001
Tewkesbury United Kingdom,-2.15796,51.992265
Kilkenny Ireland,-7.2447879,52.6541454
Bagneux France,2.31002,48.796696
Borgen Norway,10.4365687,59.8346001
Wollersdorf Austria,16.16878,47.86542
Islamabad Pakistan,73.0478848,33.6844202
Darlington United Kingdom,-1.559458,54.52361
Merris France,2.65485,50.712159
Feuquières-en-vimeu France,1.6082479,50.060969
Mahón Spain,4.2230836,39.9148178
Irricana Canada,-113.6039095,51.3216442
Castellv=n De La Plana Spain,-0.0513246,39.9863563
Bangor United Kingdom,-4.129263,53.22739
Launceston Australia,147.1440875,-41.4332215
Maliav±o Spain,-3.8402247,43.4184077
Patna City India,85.2220225,25.6006531
Hv©rouville-saint-clair France,-0.333655,49.20358
Steyregg Austria,14.3713292,48.2835238
March United Kingdom,0.088622,52.551716
Örebro Sweden,15.2134105,59.2752626
Bayan Lepas Malaysia,100.2593272,5.294464
Lübeck Germany,10.6865593,53.8654673
Tremblay France,2.557211,48.979952
Dardilly France,4.753184,45.805587
Montreal Canada,-73.567256,45.5016889
Swaffham United Kingdom,0.687481,52.647466
Saint-médard-de-mussidan France,0.346178,45.044112
Salon-de-provence France,5.097022,43.640199
Raismes France,3.484984,50.392546
Puidoux Switzerland,6.7691772,46.4988452
Tallinna Estonia,24.7535747,59.4369608
Lake Forest United States,-117.6861023,33.6469437
Targu Jiu Romania,23.2689393,45.0314279
San Mauro Pascoli Italy,12.4323265,44.1194341
Biella Italy,8.0583397,45.5628842
Surfers Paradise Australia,153.416667,-28
Delfzijl Netherlands,6.9244598,53.3310272
Tulle France,1.771697,45.26565
Henwood United Kingdom,-4.44535,50.5345
Göttingen Germany,9.9158035,51.5412804
Gv?ttingen Germany,9.9158035,51.5412804
Lomé Togo,1.2254183,6.1256261
Lomv© Togo,1.2254183,6.1256261
Hartlebury United Kingdom,-2.229982,52.337686
Naarden Netherlands,5.1604238,52.2952549
Whitley Bay United Kingdom,-1.4512989,55.046389
Højbjerg Denmark,10.205643,56.117841
Halmstad Sweden,12.8577885,56.6743748
Zizers Switzerland,9.56552,46.93653
Alkmaar Netherlands,4.7533754,52.6323813
Feusisberg Switzerland,8.7469796,47.1869781
Canoas Brazil,-51.1585398,-29.9188183
Jesi Italy,13.2463797,43.5270861
Marcilly-d'azergues France,4.727579,45.872524
La Spezia Italy,9.8240826,44.1024504
Brasil Brazil,-51.92528,-14.235004
Saint-gv¢tien-des-bois France,3.512288,47.377449
Jurmala Latvia,23.6168485,56.947079
Skibbereen Ireland,-9.2621303,51.5559244
Santa Catarina Brazil,-50.2188556,-27.2423392
San Juan Philippines,121.0355375,14.6019309
Villeneuve France,5.852461,43.89764
Newark United States,-74.1723667,40.735657
Central Hong Kong SAR China,114.1587983,22.2799907
Fortaleza Brazil,-38.5269981,-3.7327144
Martigny Switzerland,7.0755334,46.1049798
Cornellá De Llobregat Spain,2.0707159,41.3573827
Beaufays Belgium,5.6387873,50.5586829
Tyler United States,-95.3010624,32.3512601
Shoreditch United Kingdom,-0.0777472,51.5229106
Toowoomba Australia,151.9506696,-27.5598212
Gloucester United Kingdom,-2.238156,51.8642449
Opglabbeek Belgium,5.58412,51.04316
Wandsworth United Kingdom,-0.1817824,51.4570716
Steyning United Kingdom,-0.326676,50.887403
Palma Spain,2.6501603,39.5696005
Le Pontet France,4.863831,43.9591489
Braga Portugal,-8.426507,41.5454486
Surrey Canada,-122.8490125,49.1913466
Jardim Paulista Brazil,-46.6606906,-23.5739787
Apeldoorn Netherlands,5.9699231,52.211157
Holstebro Denmark,8.621727,56.361534
Casal Da Areia Portugal,-8.9866509,39.6063027
Sint-niklaas Belgium,4.154441,51.1558839
Utah United States,-111.0937311,39.3209801
Bastia France,9.450881,42.697283
Leatherhead United Kingdom,-0.33112,51.296407
Moskva Russia,37.6172999,55.755826
Bruttisellen Switzerland,8.6312396,47.418886
Castricum Netherlands,4.6727354,52.5452585
Busan South Korea,129.0756416,35.1795543
Magnano In Riviera Italy,13.1725498,46.2227167
Berkhamsted United Kingdom,-0.5678569,51.759766
Corsico Italy,9.1092322,45.4323397
Havant United Kingdom,-0.9847132,50.8518324
Reno United States,-119.8138027,39.5296329
Illkirch France,7.711011,48.52854
Saint-gilles Belgium,4.3402184,50.8301436
Tangshan China,118.180193,39.630867
Lelystad Netherlands,5.471422,52.518537
Hawthorne United States,-118.3525748,33.9164032
Sestu Italy,9.0919429,39.3007903
Perú Colombia,-95.9026078,36.0470608
Nyíregyháza Hungary,21.7244053,47.9495324
Nyv?regyhv°za Hungary,-74.0059728,40.7127753
Thessaloníki Greece,22.9444191,40.6400629
Rueil-malmaison France,2.17693,48.882767
Ramsbottom United Kingdom,-2.32049,53.648457
Fourchambault France,3.082998,47.014448
Bolton Upon Dearne United Kingdom,-1.316327,53.518834
Vleuten Netherlands,5.0241355,52.1092881
Logrov±o Spain,-2.4449852,42.4627195
Muenchen Germany,11.5819805,48.1351253
St. Helens United Kingdom,-2.737095,53.456307
Quartu Sant'elena Italy,9.1836462,39.2413493
Minerbe Italy,11.3295949,45.2409498
Alexandria Egypt,29.9187387,31.2000924
Modugno Italy,16.7824423,41.0827212
Slovenska Bistrica Slovenia,15.5727869,46.3919813
Vaduz Liechtenstein,9.5209277,47.1410303
Manhattan United States,-73.9712488,40.7830603
Ljutomer Slovenia,16.197814,46.5193583
Erdington United Kingdom,-1.8446106,52.5219314
Ebberup Denmark,9.98401,55.247802
Massieux France,4.832652,45.90985
Bobigny France,2.439712,48.908612
Ashford United Kingdom,0.875019,51.1464659
Annfield Plain United Kingdom,-1.742843,54.8551431
Bormujos Spain,-6.0701344,37.3722503
Kaufbeuren Germany,10.625966,47.8830175
Lincoln United Kingdom,-0.540579,53.230688
Hertsberge Belgium,3.2730671,51.1053969
Houten Netherlands,5.1857599,52.0029907
Bierges Belgium,4.5871684,50.7113795
Brugge Belgium,3.2246995,51.209348
Parramatta Australia,151.003407,-33.8135571
Dundee United Kingdom,-2.970721,56.462018
Wetherby United Kingdom,-1.384816,53.927056
Ripley United Kingdom,-1.405792,53.052819
Lincolnshire United States,-87.9084039,42.1900249
Walthamstow United Kingdom,-0.0173437,51.5901769
Kauno Lithuania,23.9035965,54.8985207
Goiânia Brazil,-49.2648114,-16.6868982
Brv?ndbyvester Denmark,12.6028559,55.6433
Chv¢tellerault France,0.548146,46.816487
Pordenone Italy,12.661452,45.9563684
Nether Alderley United Kingdom,-2.235588,53.282836
Sotos Spain,-2.163444,40.1954788
Meitingen Germany,10.8556894,48.5467104
Viladecv°ns Spain,2.4861863,39.5166954
Cluj Romania,23.6236353,46.7712101
Kleinmachnow Germany,13.2227111,52.4079274
Hawarden United Kingdom,-3.0298075,53.18569
Langley United Kingdom,-0.5430353,51.5000406
Devon Australia,138.58,-34.888
Halle Germany,11.9688029,51.4969802
Clermont France,3.087025,45.777222
Zwolle Netherlands,6.0830219,52.5167747
Grasse France,6.926492,43.660153
La Rochelle France,-1.151139,46.160329
Karachi Pakistan,67.0011364,24.8607343
Coimbatore India,76.9558321,11.0168445
Birkerv?d Denmark,12.4221119,55.844295
Islip United Kingdom,-1.236442,51.8229989
Borna Germany,12.4923222,51.1245977
Conselve Italy,11.8741987,45.2314331
Mondeville France,-0.319769,49.176963
Montrose United Kingdom,-2.466115,56.706922
Viareggio Italy,10.2513103,43.8657267
Brazil Trinidad & Tobago,-61.2714535,10.5536656
Alcoy Spain,-0.4810937,38.6987066
Matera Italy,16.6043199,40.666379
Capannori Italy,10.5733254,43.8418933
Romain France,5.075198,44.240968
Wittenberg Germany,12.6279659,51.8739831
Sesto Fiorentino Italy,11.2183781,43.8374367
Valinhos Brazil,-46.9999471,-22.9659553
Rivesaltes France,2.871763,42.768583
Pianoro Italy,11.3412262,44.3910429
Stroud United Kingdom,-2.217758,51.745734
Tetbury United Kingdom,-2.15818,51.639295
Yerres France,2.490967,48.712858
Slangerup Denmark,12.1697671,55.845994
Pedrulha Portugal,-8.4465396,40.2427147
Bradford United Kingdom,-1.759398,53.795984
Hovv•s Sweden,14.2174399,58.8516394
Selkirk United Kingdom,-2.838524,55.550658
Qiryat Bialik Israel,35.088407,32.832154
Cornwall Bridge United States,-73.3707551,41.8187793
Malakoff France,2.2977599,48.817275
Old Windsor United Kingdom,-0.580836,51.462058
Carquefou France,-1.486812,47.296241
Fairfax United States,-77.3063733,38.8462236
Rapagnano Italy,13.5919994,43.1608742
Puebla Mexico,-98.2062727,19.0414398
Meyreuil France,5.495122,43.486821
Fitzroy Australia,144.978889,-37.801111
Haslingden United Kingdom,-2.3261002,53.7008264
Denver United States,-104.990251,39.7392358
Voiron France,5.591349,45.362713
Lohja Finland,24.0674709,60.251176
Andover United Kingdom,-1.4919233,51.2111975
Noordwijk Netherlands,4.4500094,52.2399885
Feldkirchen Germany,11.7313522,48.1490937
Lorient France,-3.3702449,47.7482524
Valley Cottage United States,-73.9554159,41.1181514
Freienbach Switzerland,8.7565933,47.2064107
Hrusevje Slovenia,14.1168294,45.7623462
Shunyi China,116.65465,40.130347
Suhl Germany,10.6881255,50.6076846
Modi'in Israel,35.010397,31.890267
Polignano A Mare Italy,17.22261,40.9948946
Kuala Kedah Malaysia,100.3469826,5.5985588
Jintan China,119.597896,31.723247
Gliwice Poland,18.6713802,50.2944923
Truro United Kingdom,-5.051041,50.263195
Ramonville France,1.4784139,43.543794
Borgomanero Italy,8.4624538,45.6989441
Zhengzhou China,113.625328,34.746611
Giesbeek Netherlands,6.0707844,51.9937389
Eilenburg Germany,12.617702,51.4597557
Ibadan Nigeria,3.9470396,7.3775355
Blanchardstown Ireland,-6.3759736,53.3842081
Indreabhán Ireland,-9.4655489,53.2403113
Palmela Portugal,-8.9016937,38.569441
Capenhurst United Kingdom,-2.9518011,53.2612738
Eaubonne France,2.2779189,48.992128
Montévrain France,2.745977,48.874927
Tvååker Sweden,12.3984054,57.0422295
Telford United Kingdom,-2.445258,52.678419
Châteaugiron France,-1.503148,48.048488
Mariefred Sweden,17.22311,59.2620381
Born Netherlands,5.810984,51.0340446
Velky Lapas Slovakia,18.1857137,48.2901154
Peccioli Italy,10.720062,43.5449624
Yoqne`am `illit Israel,35.104606,32.660225
Santamala Finland,22.0955766,60.6053963
Westchester United States,-73.7948516,41.1220194
Moravicany Czechia,16.9604266,49.7569344
Carsoli Italy,13.0894267,42.1003467
St. Petersburg United States,-82.6402915,27.7676008
Stamford United Kingdom,-0.480216,52.651282
Ostend Belgium,2.928656,51.21543
Momo Italy,-96.749779,32.9097032
Skelmersdale United Kingdom,-2.77637,53.5503519
Iver United Kingdom,-0.509572,51.5201939
Derry United Kingdom,-7.3085748,54.9966124
Tullamarine Australia,144.8803113,-37.6994841
Faenza Italy,11.8774091,44.2898527
Blackburn United Kingdom,-2.487529,53.748575
Cerknica Slovenia,14.392177,45.7966255
Limonest France,4.771898,45.835841
Champagne-au-mont-d'or France,4.7870331,45.8000896
Caspe Spain,-0.0408208,41.2344007
Gornja Radgona Slovenia,15.9910847,46.6767099
Bondi Australia,151.2766845,-33.8914755
Lomma Sweden,13.0674055,55.6731375
Hamar Norway,11.0679977,60.7945331
Luxembourg Belgium,5.4676983,50.0546886
Villatuerta Spain,-1.9918231,42.659795
Pullen Vale Australia,152.8914,-27.5171
Vaajakoski Finland,25.8702878,62.2472867
Cologno Italy,9.2787075,45.528603
Montecchio Emilia Italy,10.4466072,44.6986949
Wildau Germany,13.6265615,52.3260146
Sv§vedalen Sweden,12.0825954,57.7179572
Saggart Ireland,-6.4431841,53.2808397
Saint-denis-sur-loire France,1.387232,47.624558
Pakefield United Kingdom,1.7293127,52.4512573
Dungannon United Kingdom,-6.7669352,54.5082725
Quimper France,-4.097899,47.997542
São Carlos Brazil,-47.8909263,-22.0087082
Sv£o Carlos Brazil,-47.8909263,-22.0087082
La Tronche France,5.737805,45.205168
Certaldo Italy,11.0415461,43.5476586
Klausdorf Germany,10.2119938,54.3054496
Kassel Germany,9.4797461,51.3127114
Fukushima Japan,140.1832516,37.3834373
Elmas Italy,9.0515805,39.2634329
Ulvila Finland,21.875001,61.4301935
Jena Germany,11.5892372,50.927054
Karlslunde Denmark,12.249315,55.566682
Kallithéa Greece,23.7020975,37.955893
Kallithv©a Greece,23.7020975,37.955893
Capurso Italy,16.9192635,41.0489013
Loddon United Kingdom,1.483164,52.532432
Nidau Switzerland,7.2328515,47.0935327
Oberhaching Germany,11.5869177,48.0277277
Brezice Slovenia,15.5964652,45.9088102
Navarrete Spain,-2.5619607,42.429811
Eskisehir Turkey,30.5256311,39.7667061
Borehamwood United Kingdom,-0.272308,51.657728
Falmer United Kingdom,-0.0875363,50.8668892
Xinjiang China,87.5395855,42.5246357
Netherlands United States,-73.9745461,40.7512725
Skelleftev• Sweden,20.950917,64.750244
Hengoed United Kingdom,-3.23131,51.646519
Grewelthorpe United Kingdom,-1.648304,54.183954
Schaffhausen Switzerland,8.6380489,47.6958897
Stowmarket United Kingdom,0.997712,52.188902
Vilafant Spain,2.9425698,42.2528434
Seefeld Germany,11.2077724,48.0319484
Smichov Czechia,14.4042499,50.0719979
Norwood United States,-71.1989695,42.1943909
Cobham United Kingdom,-0.410856,51.328783
Eppingen Germany,8.9092339,49.1379832
Sligo Ireland,-8.4760888,54.2766103
Recife Brazil,-34.9286096,-8.0522404
Fisciano Italy,14.7965608,40.7731935
Kozienice Poland,21.5511768,51.5855328
Poissy France,2.046982,48.929584
Taiyuan China,112.548879,37.87059
Wienau Austria,14.724,48.50856
Kildare Ireland,-6.9095683,53.1589342
Marly-le-roi France,2.097727,48.868389
Cirencester United Kingdom,-1.968243,51.718495
Redwood City United States,-122.2363548,37.4852152
Willems France,3.239231,50.631662
Compiègne France,2.826145,49.417816
Bezons France,2.215847,48.925687
Malataverne France,4.7525045,44.4862218
Sunninghill South Africa,28.0742249,-26.0323925
Leibnitz Austria,15.56207,46.79043
San Giovanni Italy,15.7291788,41.70659
Wavre Belgium,4.6128075,50.7158956
Eisenberg Germany,11.8926466,50.9686064
Milpitas United States,-121.8995741,37.4323341
Sammamish United States,-122.0355736,47.6162683
Le Rheu France,-1.795384,48.101097
Sandown South Africa,28.0620489,-26.1038635
Radom Poland,21.1471334,51.4027236
Katowice Poland,19.0237815,50.2648919
Halden Norway,11.387457,59.1329964
Ariana Tunisia,10.1647233,36.8665367
Steyr Austria,14.41827,48.05009
Natal Brazil,-35.200916,-5.7792569
Tenbury Wells United Kingdom,-2.596406,52.307662
Livorno Italy,10.3105674,43.548473
Moskháton Greece,23.680533,37.950614
Walnut United States,-117.8653386,34.0202894
Hanborough United Kingdom,-1.37687,51.8178237
Jette Belgium,4.3227894,50.8808582
Dramlje Slovenia,15.393211,46.2709605
Hereford United Kingdom,-2.715974,52.056398
Grosuplje Slovenia,14.658899,45.9557645
Brugherio Italy,9.2987928,45.548917
Chur Switzerland,9.5319859,46.8507835
Kirchdorf Switzerland,7.5480086,46.8206819
Raseiniai Lithuania,23.1156129,55.3819499
Hillington United Kingdom,-4.3642928,55.860009
Alfajarv?n Spain,-4.4190529,36.7209035
Nis Serbia,21.8957589,43.3209022
Birkirkara Malta,14.4665072,35.8954706
Gouy-saint-andrv© France,1.903211,50.373602
Gwangju South Korea,126.8526012,35.1595454
Auderghem Belgium,4.4265181,50.8164064
Pyrmont Australia,151.1956918,-33.8737167
Retford United Kingdom,-0.945503,53.321356
Eger Hungary,20.3772284,47.9025348
Alwarpet India,80.2531271,13.0334869
Billingham United Kingdom,-1.290961,54.612537
Lieto Finland,22.4612748,60.500873
Minato Japan,139.7515077,35.6580813
Heroldsberg Germany,11.1540547,49.5323509
Hague Canada,-106.4163091,52.5109445
Saluzzo Italy,7.4927355,44.6445404
Monheim Germany,6.8945753,51.0891756
East Malling United Kingdom,0.4383269,51.2885498
Bromborough United Kingdom,-2.9772937,53.3321915
Chesterfield United States,-90.5770675,38.6631083
Worthing United Kingdom,-0.372882,50.81787
Salo Finland,23.1171797,60.3900183
Little Chesterford United Kingdom,0.211946,52.0540639
Southwick United Kingdom,-0.238234,50.8353139
Cirák Hungary,17.0282338,47.4779219
Clichy France,2.304768,48.904526
Carcavelos Portugal,-9.3378114,38.6879164
Raipur India,81.6296413,21.2513844
Joinville-le-pont France,2.472043,48.821267
Poprad Slovakia,20.295414,49.0511221
Caversham United Kingdom,-0.966547,51.476798
San Pedro United States,-118.2922461,33.7360619
Pesnica Pri Mariboru Slovenia,15.6758117,46.6086054
Gradignan France,-0.618945,44.774267
Tamworth United Kingdom,-1.691032,52.633584
Alappuzha India,76.3388484,9.4980667
Lowestoft United Kingdom,1.753449,52.481138
West Hollywood United States,-118.3617443,34.0900091
Pretoria South Africa,28.2292712,-25.7478676
Taupo New Zealand,176.0702098,-38.6856924
Evanston United States,-87.6876969,42.0450722
Annecy France,6.129384,45.899247
Osnabrück Germany,8.0471788,52.2799112
Grao De Castellv=n Spain,0.0209881,39.9837993
Rillieux France,4.897126,45.819655
Gávea Brazil,-43.2285147,-22.9760044
Gv°vea Brazil,-43.2285147,-22.9760044
Metz France,6.1757156,49.1193089
Skien Norway,9.6127694,59.1881606
Saint-michel- France,-1.511457,48.636063
Ivry-sur-seine France,2.38822,48.813055
San Luis Potosí Mexico,-100.9855409,22.1564699
Suderve Lithuania,25.0926398,54.7797399
Finland United States,-91.2461985,47.4140821
Mansfield United Kingdom,-1.198674,53.147195
Varanasi India,82.9739144,25.3176452
La Chapelle D'armentieres France,2.8949342,50.6730074
Oundle United Kingdom,-0.4687516,52.4808407
Boldon United Kingdom,-1.422718,54.943156
Novo Hamburgo Brazil,-51.0331933,-29.7577375
Cordovilla Spain,-5.4063904,40.9513366
Marietta United States,-84.5499327,33.952602
Saarbrücken Germany,6.9969327,49.2401572
Limal Belgium,4.5732954,50.6934506
Bracknell United Kingdom,-0.75398,51.41604
Santa Cruz De Bezana Spain,-3.9024482,43.4425958
Palanquinos Spain,-5.5061304,42.4568871
Monterrey Mexico,-100.3161126,25.6866142
Trani Italy,16.4178334,41.2774857
Saint Leonards Australia,151.1942171,-33.8227402
Wieselburg Austria,15.1386275,48.1286025
Metamv=rfosi Greece,23.6036791,40.2301875
Ennis Ireland,-8.9887384,52.8474255
Wagga Wagga Australia,147.3598323,-35.1081689
Vilanova I La Geltru Spain,1.727446,41.2151504
Larnaka Cyprus,33.6231723,34.9002535
Guasticce Italy,10.4088595,43.597632
Letterkenny Ireland,-7.7342787,54.9558392
Morgan Hill United States,-121.6543901,37.1305012
Magdeburg Germany,11.6276237,52.1205333
Wuxi Shi China,120.31191,31.491169
Selby United Kingdom,-1.067189,53.783524
Portugal Philippines,121.026301,14.560843
Morbegno Italy,9.5660745,46.1355055
Jersey United States,-74.4056612,40.0583238
Lohne Germany,8.262598,52.6505733
Westerkappeln Germany,7.8817046,52.3151023
Grezzana Italy,11.0165425,45.5195294
Littlehampton United Kingdom,-0.5386609,50.811057
Burton-on-trent United Kingdom,-1.6371359,52.8140281
Hammersmith United Kingdom,-0.223731,51.491187
Fort-de-France Martinique,-61.0587804,14.6160647
Legazpia Spain,-2.3315143,43.0523571
Porto Salvo Portugal,-9.3058199,38.718693
Mornago Italy,8.7538274,45.7501813
Sauðárkrókur Iceland,-19.6404746,65.7409444
Limburg Belgium,5.3419677,50.9738973
Wonga Park Australia,145.2696895,-37.7355557
Marktredwitz Germany,12.0899816,50.0035483
Misgav Israel,35.2697802,32.8782643
Hod Hasharon Israel,34.8838788,32.149961
Staveley United Kingdom,-2.817677,54.377897
Altedo Italy,11.4866373,44.6646247
Trouy France,2.355825,47.008896
Sharjah United Arab Emirates,55.4209317,25.3462553
Pierrelaye France,2.1561131,49.022862
Gometz-la-ville France,2.126976,48.671414
Casablanca Morocco,-7.5898434,33.5731104
Innerleithen United Kingdom,-3.064912,55.624015
Marton-in-cleveland United Kingdom,-1.206954,54.53864
Bollebygd Sweden,12.5701433,57.6689691
Hanoi Vietnam,105.8341598,21.0277644
Fontaine France,5.688211,45.192754
Nanterre France,2.215331,48.892423
Foggia Italy,15.5446302,41.4621984
Loos France,3.017729,50.615139
Huningue France,7.581459,47.593723
Hillerød Denmark,12.300806,55.927909
Lewes United Kingdom,0.00878,50.873872
Berkeley United States,-122.273042,37.8715226
Phnom Penh Cambodia,104.9282099,11.5563738
Banbury United Kingdom,-1.339775,52.0629009
Kessenich Belgium,5.82297,51.15142
Helston United Kingdom,-5.274996,50.101593
Uniondale United States,-73.5929056,40.7003793
Kilpauk India,80.2437031,13.0822905
Saint-barthelemy-d'anjou France,-0.495751,47.468607
Steinkjer Norway,11.4952627,64.0150193
Veresegyház Hungary,19.280257,47.6542478
Veresegyhv°z Hungary,19.280257,47.6542478
Sipoo Finland,25.268977,60.376754
Kochi India,76.2673041,9.9312328
Münster Germany,7.6261347,51.9606649
Southport United Kingdom,-3.010113,53.645708
Catania Italy,15.0830304,37.5078772
Gualdo Tadino Italy,12.7822413,43.234139
Wicklow Ireland,-6.044589,52.9808207
Saltaire United Kingdom,-1.7896135,53.8382402
Hillsborough United States,-122.3794163,37.5741032
Pangyo South Korea,127.111149,37.394805
Ipswich United Kingdom,1.14822,52.056736
Guiyang China,106.630153,26.647661
Aalsmeer Netherlands,4.7619222,52.2621639
Riyadh Saudi Arabia,46.6752957,24.7135517
Miraflores Peru,-77.0315913,-12.111062
Saint John's Canada,-52.7125768,47.5615096
Towcester United Kingdom,-0.989688,52.135107
Stourbridge United Kingdom,-2.148731,52.456891
Rayleigh United Kingdom,0.604871,51.586385
Ockley United Kingdom,-0.3625906,51.1465149
Perchtoldsdorf Austria,16.2692453,48.1205386
Esztergom Hungary,18.7434451,47.7883949
Klagenfurt Austria,14.3122246,46.6364598
Gravellona Toce Italy,8.4324551,45.9283201
Pavia Italy,9.1582069,45.1847248
Osøyri Norway,5.4638188,60.1838529
Renens Switzerland,6.59137,46.53381
Belgaum India,74.4976741,15.8496953
Zeist Netherlands,5.2332526,52.0906015
Vigevano Italy,8.8354706,45.3154921
Heverlee Belgium,4.6958889,50.8626072
Selfoss Iceland,-21.0013832,63.9334611
Troisdorf Germany,7.1430246,50.8177471
Prishtinv´ Serbia,21.1655028,42.6629138
Fossano Italy,7.7217934,44.552479
Nuth Netherlands,5.8925961,50.9114274
Catanzaro Italy,16.5876516,38.9097919
Margv£o India,73.986191,15.2832187
Coslada Spain,-3.5651646,40.4260459
Nizhni Novgorod Russia,43.936059,56.2965039
Odiham United Kingdom,-0.939525,51.254383
St. Peter Port Guernsey,-2.5497069,49.4541677
Chaddesden United Kingdom,-1.4426521,52.9270812
Trujillo Peru,-79.0329727,-8.1060428
Guadalajara Mexico,-103.3496092,20.6596988
Hobro Denmark,9.797648,56.6391392
Epping United Kingdom,0.108655,51.700328
Frankston Australia,145.135722,-38.1466246
Naters Switzerland,7.9916569,46.3239282
Sankt Marienkirchen Austria,13.4504883,48.3876338
Jodhpur India,73.0243094,26.2389469
San Leandro United States,-122.1568554,37.7257663
Rudersberg Germany,9.5303744,48.8847498
Johor Malaysia,103.7618154,1.4853682
Barrie Canada,-79.6903316,44.3893556
Zarautz Spain,-2.1713967,43.284771
Wiener Neudorf Austria,16.320342,48.0853962
Peine Germany,10.243267,52.3204095
Cannock United Kingdom,-2.0218293,52.6999408
Coimbrã Portugal,-8.4102573,40.2033145
Assisi Italy,12.6195966,43.0707017
Bod Romania,25.6464791,45.7633749
Stockholm United States,-92.2433487,44.5093954
Neuried Germany,7.8156348,48.4487729
Elda Spain,-0.7965933,38.4764864
Molinella Italy,11.6742512,44.6068037
Muenster Germany,7.6261347,51.9606649
L'aigle France,0.628715,48.764651
Chelmsford United States,-71.3672838,42.5998139
Greenville United States,-82.3940104,34.8526176
Laguna Niguel United States,-117.7149438,33.5236744
Veszprém Hungary,17.9093019,47.1028087
Veszprv©m Hungary,17.9093019,47.1028087
Shah Alam Malaysia,101.518461,3.073281
Ávila Spain,-4.6812086,40.656685
Treviso Italy,12.2430437,45.6668893
Paddock Wood United Kingdom,0.38477,51.1813239
Chamonix France,6.869433,45.923697
Xihu China,120.130211,30.259312
Porsgrunn Norway,9.6555147,59.1385567
Baulkham Hills Australia,150.9929255,-33.7619106
Knutsford United Kingdom,-2.371833,53.3005939
Jogeshwari India,72.8427707,19.1438971
Hongo Japan,139.7600967,35.7088306
Tullamore Ireland,-7.4933852,53.2755255
Draper United States,-111.8638226,40.5246711
Sedgefield United Kingdom,-1.4516577,54.6594559
Odivelas Portugal,-9.18518,38.795369
Armentières France,2.884218,50.691652
Trnava Slovakia,17.5833218,48.3709108
Ringsend Ireland,-6.2267121,53.3418611
Macao China,113.543873,22.198745
Yokohama Japan,139.6379639,35.4436739
Olsztyn Poland,20.4801192,53.778422
Pozuelo Spain,-3.8058517,40.4440627
Bruges Belgium,3.2246995,51.209348
Santa Monica United States,-118.4911912,34.0194543
Craiova Romania,23.7948807,44.3301785
Ludres France,6.160576,48.621631
Centurion South Africa,28.0888578,-25.864029
Villaviciosa De Odón Spain,-3.9139109,40.3626807
Bibbiano Italy,10.4735892,44.6641641
Beaconsfield Australia,145.371,-38.049
Schruns Austria,9.9198776,47.0800395
Espina Spain,-6.3342682,43.3959224
Cerano Italy,8.7764599,45.4102732
Maurepas France,1.945326,48.7623589
Scarborough United Kingdom,-0.399752,54.283113
Goring By Sea United Kingdom,-0.422028,50.8129769
South Holland United States,-87.6069894,41.6008681
San Miguel De Tucuman Argentina,-65.2175903,-26.8082848
Santa Cruz De Tenerife Spain,-16.2518467,28.4636296
Sawbridgeworth United Kingdom,0.14721,51.81554
Málaga Spain,-4.4259962,36.7167456
Bechhofen Germany,10.553214,49.1599456
La Lapa Spain,-6.5193087,38.4531543
Kamnik Slovenia,14.6072968,46.2221964
Lucena Spain,-4.4961008,37.4129332
Coleraine United Kingdom,-6.6646103,55.1325802
Wonju South Korea,127.9201621,37.3422186
Seriate Italy,9.7217012,45.685418
Stratford-upon-avon United Kingdom,-1.708298,52.19173
Saint Charles United States,-90.4974359,38.7881062
Bromsgrove United Kingdom,-2.061906,52.335589
Sapporo Japan,141.3544507,43.0617713
Castenedolo Italy,10.2982006,45.4715911
Siglufjörður Iceland,-18.9112652,66.1511755
Manly Australia,151.2947775,-33.8060158
Hessen Germany,9.1624376,50.6520515
Bresso Italy,9.1903928,45.5391048
Córdoba Argentina,-64.1887761,-31.4200833
Le Noirmont Switzerland,6.9572116,47.2256223
Caernarfon United Kingdom,-4.273911,53.139551
Aveiras De Cima Portugal,-8.8990865,39.1374661
Zaandijk Netherlands,4.8028179,52.4740433
Andheri India,72.8697339,19.113645
Jakar Bhutan,90.7390245,27.5652391
Östersund Sweden,14.6360681,63.1766832
Toledo Spain,-4.0273231,39.8628316
Woodbridge Canada,-79.609243,43.7761753
Lexington United States,-84.5037164,38.0405837
Etobicoke Canada,-79.5131983,43.6204946
Braintree United Kingdom,0.5509269,51.880087
Chipping Norton United Kingdom,-1.542189,51.943544
Mountshannon Ireland,-8.4371654,52.9361093
Sittingbourne United Kingdom,0.731596,51.340402
Loughgall United Kingdom,-6.6029059,54.4093603
Pimpama Australia,153.3053934,-27.8221642
Trezzano Rosa Italy,9.4886612,45.5831283
Kibbutz Afikim Israel,35.57773,32.680564
Langley-on-tyne United Kingdom,-2.26907,54.944489
Nesoddtangen Norway,10.6594014,59.865528
Orléans France,1.909251,47.902964
Anglet France,-1.514699,43.481402
East Wenatchee United States,-120.2931263,47.4156824
Kyoto Japan,135.7681489,35.011564
Morv=n De La Frontera Spain,-5.4541928,37.1211901
Farington United Kingdom,-2.684352,53.703494
Teplice Czechia,13.835284,50.6444579
Chieti Italy,14.1635845,42.347886
Herning Denmark,8.967322,56.138557
Trondhjem Norway,10.3950528,63.4305149
Brügg Switzerland,8.2109103,47.4867355
Uzerche France,1.563457,45.424066
Oban United Kingdom,-5.471047,56.415157
Giugliano In Campania Italy,14.2032077,40.9285635
West End Australia,153.0122,-27.4802
Puiseux France,2.693752,50.116636
Reghin Romania,24.700762,46.7710931
Saint-hellier France,1.190275,49.7313789
Bern Switzerland,7.4474468,46.9479739
Raleigh United States,-78.6381787,35.7795897
Limoges France,1.261105,45.833619
Foetz Luxembourg,6.00845,49.52744
Ibstock United Kingdom,-1.401395,52.694645
Edgewood United States,-122.4329319,41.4597662
Schiphol Netherlands,4.7674241,52.3076865
Preures France,1.875888,50.57203
Alexandria Australia,151.1902576,-33.9080273
Chichester United Kingdom,-0.774936,50.83761
San Bruno United States,-122.4110835,37.6304904
Santa Cruz De La Palma Spain,-17.7645747,28.6839885
Gospic Croatia,15.3750495,44.5469337
Bincombe United Kingdom,-2.44596,50.6598479
Sever Do Vouga Portugal,-8.3717672,40.7334189
Albinea Italy,10.6025929,44.6198538
Castleford United Kingdom,-1.345968,53.723466
Queanbeyan Australia,149.230896,-35.3530392
Lisbon United States,-70.1043704,44.0316013
Ghislenghien Belgium,3.8774062,50.6565066
Kunming China,102.832891,24.880095
Campi Bisenzio Italy,11.1277659,43.8274885
Le Broc France,7.17074,43.808542
Berkeley United Kingdom,-2.4583956,51.6959856
Columbus United States,-82.9987942,39.9611755
Perth United Kingdom,-3.4308381,56.394994
Baillargues France,4.013409,43.660593
Arlon Belgium,5.8104804,49.6851364
Beaconsfield United Kingdom,-0.6442409,51.602396
Riverside United States,-117.3754942,33.9806005
Visakhapatnam India,83.2184815,17.6868159
Brantford Canada,-80.2644254,43.1393867
Hythe United Kingdom,1.081937,51.071739
Heilbronn Germany,9.210879,49.1426929
Vitória Do Mearim Brazil,-44.8722032,-3.4604085
La Colle-sur-loup France,7.10342,43.686732
Eilat Israel,34.951925,29.557669
Villard-bonnot France,5.888011,45.238732
Szigetszentmv°rton Hungary,18.9586038,47.2271163
Saint-jorioz France,6.16444,45.833395
Settimo Torinese Italy,7.7728777,45.1383266
Melksham United Kingdom,-2.137629,51.370447
South Yarra Australia,144.989,-37.84
Corsham United Kingdom,-2.189674,51.431443
Saint-bonnet-de-vieille-vigne France,4.258399,46.525142
Eybens France,5.750144,45.147713
Le Parcq France,2.100798,50.37867
La Chaussv©e France,0.110161,46.885871
Les Pins France,0.390589,45.81936
Noyal-sur-seiche France,-1.665151,48.0441772
Cherbourg France,-1.622137,49.6337308
Merlimont France,1.614852,50.4552059
Calais France,1.858686,50.95129
Jouy-en-josas France,2.169007,48.764545
Canada United States,-77.0185482,38.8929359
Suhr Switzerland,8.0795037,47.370902
Clapham United Kingdom,-0.1363047,51.4636982
Uberaba Brazil,-47.939154,-19.7473668
Schiedlberg Austria,14.2633027,48.0909962
Guangdong China,113.7632828,23.3790333
Douala Cameroon,9.7678687,4.0510564
Chile Brazil,-47.878755,-15.8106145
Nazareth Israel,35.303546,32.699635
Saint-cyr-en-val France,1.969085,47.8320549
Guizhou China,107.2902839,26.8429645
Neuilly-le-brignon France,0.789453,46.974448
Houghton Le Spring United Kingdom,-1.468691,54.841016
Stralsund Germany,13.0770347,54.3090654
Ringwood United Kingdom,-1.788817,50.844949
Palma De Mallorca Spain,2.6501603,39.5696005
Hamamatsucho Japan,139.7556247,35.657111
Cambrai France,3.236633,50.173538
Harju Estonia,25.2466974,59.3334239
Cleveland United States,-81.6943605,41.49932
Medford United States,-122.8755949,42.3265152
Arnhem Netherlands,5.8987296,51.9851034
Rud Norway,10.4927846,59.9080707
Kunshan China,120.980736,31.385597
Jinjiang China,118.552365,24.781681
Shantou China,116.681972,23.354091
Xian China,108.93977,34.341574
Whitefield India,77.7499721,12.9698196
Luleå Sweden,22.1567026,65.584819
Targu-mures Romania,24.5514392,46.5385862
Matlock United Kingdom,-1.551774,53.137156
Theale United Kingdom,-1.0709569,51.4368102
Barry United Kingdom,-3.2825859,51.3997529
Khobar Saudi Arabia,50.1971381,26.2171906
Cheshire United States,-72.9106202,41.5083668
Braine-le-comte Belgium,4.13484,50.60936
Ngahere New Zealand,171.4446354,-42.3939374
Whitchurch United Kingdom,-2.682045,52.968716
Lambourn United Kingdom,-1.531531,51.507954
Fern Down United Kingdom,-1.899776,50.807364
Minnetonka United States,-93.4687489,44.9211836
La Muela Spain,-1.1161166,41.5758184
Montebelluna Italy,12.0439904,45.775491
Kensington Australia,151.2232749,-33.910021
Celbridge Ireland,-6.5384589,53.339897
Sandbach United Kingdom,-2.367382,53.146561
Salerno Italy,14.7680961,40.6824408
Newtown United States,-73.3035651,41.4141172
Skanderborg Denmark,9.9297989,56.037247
Geldermalsen Netherlands,5.2910872,51.8820038
Cosham United Kingdom,-1.0742463,50.8433024
Ladenburg Germany,8.6077464,49.4739759
Newcastle Under Lyme United Kingdom,-2.2273002,53.013208
Plataniá Greece,23.9089195,35.5167019
East Kilbride United Kingdom,-4.1769987,55.7643524
La Napoule France,6.938309,43.546232
Best Netherlands,5.3978482,51.5077637
Aurora Canada,-79.450396,44.00648
La Ciotat France,5.605155,43.173653
Barueri Brazil,-46.8788931,-23.5037526
Finchley United Kingdom,-0.1979547,51.5971434
Zhenjiang China,119.425836,32.187849
Armilla Spain,-3.6167146,37.1512306
Danyang China,119.606439,32.010214
Ulm Germany,9.9876076,48.4010822
Las Arenas Spain,-3.0133676,43.325549
Zebbug Malta,14.439084,35.8764648
Kells Ireland,-6.8769722,53.7271803
Monroe Township United States,-74.4330474,40.336419
Nanning China,108.366543,22.817002
Kowloon City Hong Kong SAR China,114.1855505,22.3232097
Gotanda Japan,139.7233535,35.6265188
Romsey United Kingdom,-1.49658,50.98893
Klipphausen Germany,13.5264011,51.0738358
Colwick United Kingdom,-1.086378,52.9563599
Brusque Brazil,-48.9111422,-27.0982053
Burgos Spain,-3.696906,42.3439925
Lincoln United States,-96.7025955,40.813616
Schindellegi Switzerland,8.7127887,47.1748077
Poland United States,-78.3444621,42.8111711
Nyon Switzerland,6.2347852,46.3832683
Gersfeld Germany,9.9196373,50.4495079
Haikou China,110.198286,20.044412
Phuket Thailand,98.3380884,7.9519331
Amersham United Kingdom,-0.607241,51.6755179
Ismaning Germany,11.6742738,48.2258973
Sengenthal Germany,11.4626765,49.234746
Beit Yanai Israel,34.863507,32.381729
Baoshan China,99.161761,25.112046
Calahorra Spain,-1.9673133,42.3073551
Charleston United States,-79.9310512,32.7764749
Bishops Stortford United Kingdom,0.1536502,51.8721635
Lokeren Belgium,3.9940663,51.1023413
Woolwich United Kingdom,0.0675883,51.4894752
Saint-laurent-du-var France,7.189811,43.673417
Clitheroe United Kingdom,-2.393083,53.871098
Applecross Australia,115.8387269,-32.0116062
Bruyelle Belgium,3.4276343,50.5573826
Highbury United Kingdom,-0.0979656,51.5569649
Mosfell Iceland,-19.4786111,64.6422222
Kilchberg Germany,9.0131545,48.4906875
Söderköping Sweden,16.3234307,58.4759013
Huangshan China,118.337521,29.714699
Yichang China,111.286471,30.691966
Venice United States,-118.4694832,33.9850469
Luynes France,0.554293,47.384882
Rio Brazil,-43.1728965,-22.9068467
Sint-martens-latem Belgium,3.6330725,51.0089664
Lillehammer Norway,10.4662306,61.1152713
Egilsstav8ir Iceland,-14.3948468,65.2668743
Honcho Japan,139.4783835,35.7018569
Prouvy Belgium,5.43709,49.68441
Isques France,1.654698,50.679757
Altes Lager Germany,13.0153065,52.0058159
Leigh-on-sea United Kingdom,0.6472769,51.5474028
Torellv= Spain,2.2626613,42.0491614
Vuorilahti Finland,25.5568221,62.9806558
Varedo Italy,9.1577441,45.5991187
Sutton United Kingdom,-0.193961,51.3614279
Leeuwarden Netherlands,5.7999133,53.2012334
Guimarv£es Portugal,-8.2917857,41.44253
Allerød Denmark,12.3223097,55.8656692
Bukit Mertajam Malaysia,100.4590091,5.365458
Neuchâtel Switzerland,6.9292732,46.9899874
Millbury United States,-71.761522,42.1920719
Eskilstuna Sweden,16.5098046,59.3712486
San Felíu De Llobregat Spain,2.0518154,41.3979911
Neuenrade Germany,7.7950369,51.2847342
Beit-shemesh Israel,34.988099,31.747041
Pomezia Italy,12.5016822,41.6697279
Ajaccio France,8.738635,41.919229
Charlottetown Canada,-63.1310704,46.23824
Rotherham United Kingdom,-1.3635009,53.4326035
South Queensferry United Kingdom,-3.3990449,55.990003
San Giorgio Italy,13.7929636,43.1801759
Coquitlam Canada,-122.7932065,49.2837626
Sarno Italy,14.6215811,40.8101009
Onojo Japan,130.478597,33.5369648
Cyberport Hong Kong SAR China,114.1306892,22.2622066
Freiburg Im Breisgau Germany,7.8421043,47.9990077
Baoji China,107.237743,34.363184
Clifton United Kingdom,-2.6200362,51.4661551
Addison United States,-87.9889556,41.931696
Arma Di Taggia Italy,7.8539797,43.8621898
Heggedal Norway,10.4370455,59.7856355
Gruibingen Germany,9.6406496,48.5950435
Erlangen Germany,11.0119611,49.5896744
Ilmenau Germany,10.9254728,50.6843502
Craven Arms United Kingdom,-2.8332799,52.440084
Waalwijk Netherlands,5.0574822,51.6878954
Burwood Australia,145.1090089,-37.8494981
Canton United States,-81.378447,40.7989473
Nettetal Germany,6.2721001,51.3262794
Crema Italy,9.6824841,45.3643375
Nouzilly France,0.744155,47.543367
Kyoto-shi Japan,135.7681489,35.011564
Baki Azerbaijan,49.8670924,40.4092617
Genv®ve Switzerland,6.1431577,46.2043907
Bidart France,-1.590062,43.439236
Nadap Hungary,18.6167437,47.2585056
Chilworth United Kingdom,-1.4196066,50.9654871
Catterick United Kingdom,-1.629923,54.377353
San Vincenzo Italy,10.5577407,43.0772066
Mortara Italy,8.7380708,45.2515328
Kings Langley United Kingdom,-0.456157,51.716249
George Town Cayman Islands,-81.3674389,19.2869323
Lublin Poland,22.5684463,51.2464536
Jaboticabal Brazil,-48.3256762,-21.2525138
Carcassonne France,2.3517703,43.2132151
Waterford Ireland,-7.1100702,52.2593197
Pittem Belgium,3.2666707,50.9942781
Bensheim Germany,8.6187296,49.6861354
Gumma Japan,138.8799972,36.5605388
Westminster United Kingdom,-0.1332326,51.5001754
Novosibirsk Russia,82.9357327,55.0083526
Grangemouth United Kingdom,-3.7227698,56.0097152
Bury United Kingdom,-2.2966054,53.5933498
Casale Sul Sile Italy,12.3076402,45.6104526
Abercynon United Kingdom,-3.3293529,51.647512
Upplands-väsby Sweden,17.92834,59.51961
Santa Barbara United States,-119.6981901,34.4208305
Roden Netherlands,6.4323693,53.1383574
Tallaght Ireland,-6.3557063,53.288804
Centro Brazil,-43.1819148,-22.9070828
Córdoba Spain,-4.7793835,37.8881751
Klis Croatia,16.5207648,43.5601784
Gävle Sweden,17.1412726,60.6748796
Ilkley United Kingdom,-1.822817,53.925486
Baia Mare Romania,23.5849881,47.6567387
North Sydney Australia,151.20541,-33.83965
Gwalior India,78.1828308,26.2182871
Caldicot United Kingdom,-2.750868,51.591518
Liphook United Kingdom,-0.801777,51.07661
Karlskrona Sweden,15.5869001,56.161224
Middleburg United States,-77.7355496,38.9687211
Izurza Spain,-2.6443644,43.1472839
Paiporta Spain,-0.4184093,39.4274468
Pyle United Kingdom,-3.69316,51.528762
Saarlouis Germany,6.7522865,49.3134606
Lieusaint France,2.551107,48.631195
Crailsheim Germany,10.0633573,49.1337354
Nieuwegein Netherlands,5.0918192,52.0248208
Ufa Russia,55.9720554,54.7387621
Bandung Indonesia,107.6191228,-6.9174639
Cuneo Italy,7.5426711,44.3844766
Changyang China,111.198731,30.467146
Angoulême France,0.1562369,45.648377
Goes Netherlands,3.8911304,51.5046455
Greifenberg Germany,11.0835064,48.0707346
Novomirgorod Ukraine,31.6582633,48.7907203
Mclean United States,-77.1772604,38.9338676
Vällingby Sweden,17.8691434,59.3670813
Beaucouzv© France,-0.623411,47.4695081
Sanlitun China,116.455419,39.935886
Philadelphia United States,-75.1652215,39.9525839
Forest United States,-111.2750244,33.9319665
Saint-pacôme Canada,-69.9613881,47.3957503
Bruck An Der Mur Austria,15.26861,47.40993
